[{"lat": 40.75368539999999, "lng": -73.9991637, "zip": "10001", "place_name": "New York, NY 10001, USA"}, {"lat": 40.7135097, "lng": -73.9859414, "zip": "10002", "place_name": "New York, NY 10002, USA"}, {"lat": 40.7322535, "lng": -73.9874105, "zip": "10003", "place_name": "New York, NY 10003, USA"}, {"lat": 40.7038704, "lng": -74.0138541, "zip": "10004", "place_name": "New York, NY 10004, USA"}, {"lat": 40.6998433, "lng": -74.0072436, "zip": "10005", "place_name": "New York, NY 10005, USA"}, {"lat": 40.709329, "lng": -74.0131196, "zip": "10006", "place_name": "New York, NY 10006, USA"}, {"lat": 40.7136487, "lng": -74.0087126, "zip": "10007", "place_name": "New York, NY 10007, USA"}, {"lat": 40.7275043, "lng": -73.9800645, "zip": "10009", "place_name": "New York, NY 10009, USA"}, {"lat": 40.7388319, "lng": -73.98153370000001, "zip": "10010", "place_name": "New York, NY 10010, USA"}, {"lat": 40.7464969, "lng": -74.0094471, "zip": "10011", "place_name": "New York, NY 10011, USA"}, {"lat": 40.7250632, "lng": -73.9976946, "zip": "10012", "place_name": "New York, NY 10012, USA"}, {"lat": 40.7217861, "lng": -74.0094471, "zip": "10013", "place_name": "New York, NY 10013, USA"}, {"lat": 40.7366138, "lng": -74.0094471, "zip": "10014", "place_name": "New York, NY 10014, USA"}, {"lat": 40.74727, "lng": -73.9800645, "zip": "10016", "place_name": "New York, NY 10016, USA"}, {"lat": 40.7519846, "lng": -73.9697795, "zip": "10017", "place_name": "New York, NY 10017, USA"}, {"lat": 40.755322, "lng": -73.9932872, "zip": "10018", "place_name": "New York, NY 10018, USA"}, {"lat": 40.7686973, "lng": -73.9918181, "zip": "10019", "place_name": "New York, NY 10019, USA"}, {"lat": 40.7605505, "lng": -73.98226830000002, "zip": "10020", "place_name": "New York, NY 10020, USA"}, {"lat": 40.7700703, "lng": -73.9580246, "zip": "10021", "place_name": "New York, NY 10021, USA"}, {"lat": 40.7593941, "lng": -73.9697795, "zip": "10022", "place_name": "New York, NY 10022, USA"}, {"lat": 40.7769059, "lng": -73.9800645, "zip": "10023", "place_name": "New York, NY 10023, USA"}, {"lat": 40.7859464, "lng": -73.97418739999999, "zip": "10024", "place_name": "New York, NY 10024, USA"}, {"lat": 40.7999209, "lng": -73.96831019999999, "zip": "10025", "place_name": "New York, NY 10025, USA"}, {"lat": 40.8032131, "lng": -73.95258249999999, "zip": "10026", "place_name": "New York, NY 10026, USA"}, {"lat": 40.8138912, "lng": -73.96243270000001, "zip": "10027", "place_name": "New York, NY 10027, USA"}, {"lat": 40.77664120000001, "lng": -73.9521468, "zip": "10028", "place_name": "New York, NY 10028, USA"}, {"lat": 40.79164069999999, "lng": -73.9447994, "zip": "10029", "place_name": "New York, NY 10029, USA"}, {"lat": 40.8173411, "lng": -73.9433299, "zip": "10030", "place_name": "New York, NY 10030, USA"}, {"lat": 40.8270209, "lng": -73.9506774, "zip": "10031", "place_name": "New York, NY 10031, USA"}, {"lat": 40.8409822, "lng": -73.9447994, "zip": "10032", "place_name": "New York, NY 10032, USA"}, {"lat": 40.8557765, "lng": -73.9447994, "zip": "10033", "place_name": "New York, NY 10033, USA"}, {"lat": 40.8721452, "lng": -73.92128579999999, "zip": "10034", "place_name": "New York, NY 10034, USA"}, {"lat": 40.794065, "lng": -73.9271644, "zip": "10035", "place_name": "New York, NY 10035, USA"}, {"lat": 40.7602619, "lng": -73.9932872, "zip": "10036", "place_name": "New York, NY 10036, USA"}, {"lat": 40.8140369, "lng": -73.9374517, "zip": "10037", "place_name": "New York, NY 10037, USA"}, {"lat": 40.7071498, "lng": -74.0021019, "zip": "10038", "place_name": "New York, NY 10038, USA"}, {"lat": 40.8288377, "lng": -73.9374517, "zip": "10039", "place_name": "New York, NY 10039, USA"}, {"lat": 40.8639624, "lng": -73.93304289999999, "zip": "10040", "place_name": "New York, NY 10040, USA"}, {"lat": 40.7573053, "lng": -73.9550857, "zip": "10044", "place_name": "New York, NY 10044, USA"}, {"lat": 40.7645239, "lng": -73.96243270000001, "zip": "10065", "place_name": "New York, NY 10065, USA"}, {"lat": 40.7750791, "lng": -73.9932872, "zip": "10069", "place_name": "New York, NY 10069, USA"}, {"lat": 40.7728432, "lng": -73.9558204, "zip": "10075", "place_name": "New York, NY 10075, USA"}, {"lat": 40.7598323, "lng": -73.97633859999999, "zip": "10103", "place_name": "New York, NY 10103, USA"}, {"lat": 40.7534733, "lng": -73.9809635, "zip": "10110", "place_name": "New York, NY 10110, USA"}, {"lat": 40.7591267, "lng": -73.97767689999999, "zip": "10111", "place_name": "New York, NY 10111, USA"}, {"lat": 40.7590788, "lng": -73.9795135, "zip": "10112", "place_name": "New York, NY 10112, USA"}, {"lat": 40.8108356, "lng": -73.96371839999999, "zip": "10115", "place_name": "New York, NY 10115, USA"}, {"lat": 40.7502013, "lng": -73.9931036, "zip": "10119", "place_name": "New York, NY 10119, USA"}, {"lat": 40.7826039, "lng": -73.9506774, "zip": "10128", "place_name": "New York, NY 10128, USA"}, {"lat": 40.758778, "lng": -73.9727343, "zip": "10152", "place_name": "New York, NY 10152, USA"}, {"lat": 40.7638447, "lng": -73.9731963, "zip": "10153", "place_name": "New York, NY 10153, USA"}, {"lat": 40.7577789, "lng": -73.9725344, "zip": "10154", "place_name": "New York, NY 10154, USA"}, {"lat": 40.7694389, "lng": -73.9500145, "zip": "10162", "place_name": "New York, NY 10162, USA"}, {"lat": 40.7521822, "lng": -73.9787789, "zip": "10165", "place_name": "New York, NY 10165, USA"}, {"lat": 40.75469590000001, "lng": -73.97473839999999, "zip": "10167", "place_name": "New York, NY 10167, USA"}, {"lat": 40.751356, "lng": -73.9773096, "zip": "10168", "place_name": "New York, NY 10168, USA"}, {"lat": 40.7545632, "lng": -73.9759771, "zip": "10169", "place_name": "New York, NY 10169, USA"}, {"lat": 40.7525629, "lng": -73.976024, "zip": "10170", "place_name": "New York, NY 10170, USA"}, {"lat": 40.7565106, "lng": -73.9743893, "zip": "10171", "place_name": "New York, NY 10171, USA"}, {"lat": 40.7555302, "lng": -73.9751038, "zip": "10172", "place_name": "New York, NY 10172, USA"}, {"lat": 40.754139, "lng": -73.9795135, "zip": "10173", "place_name": "New York, NY 10173, USA"}, {"lat": 40.7517367, "lng": -73.9745547, "zip": "10174", "place_name": "New York, NY 10174, USA"}, {"lat": 40.7550496, "lng": -73.9756191, "zip": "10177", "place_name": "New York, NY 10177, USA"}, {"lat": 40.7517769, "lng": -73.9965928, "zip": "10199", "place_name": "New York, NY 10199, USA"}, {"lat": 40.7085019, "lng": -74.0110018, "zip": "10271", "place_name": "New York, NY 10271, USA"}, {"lat": 40.7151351, "lng": -74.0039382, "zip": "10278", "place_name": "New York, NY 10278, USA"}, {"lat": 40.7122925, "lng": -74.0079447, "zip": "10279", "place_name": "New York, NY 10279, USA"}, {"lat": 40.7084274, "lng": -74.0173484, "zip": "10280", "place_name": "New York, NY 10280, USA"}, {"lat": 40.7167028, "lng": -74.0152027, "zip": "10282", "place_name": "New York, NY 10282, USA"}, {"lat": 40.6274394, "lng": -74.0946311, "zip": "10301", "place_name": "Staten Island, NY 10301, USA"}, {"lat": 40.6311567, "lng": -74.1386767, "zip": "10302", "place_name": "Staten Island, NY 10302, USA"}, {"lat": 40.6311444, "lng": -74.17390569999999, "zip": "10303", "place_name": "Staten Island, NY 10303, USA"}, {"lat": 40.6047352, "lng": -74.0916944, "zip": "10304", "place_name": "Staten Island, NY 10304, USA"}, {"lat": 40.5944059, "lng": -74.0711359, "zip": "10305", "place_name": "Staten Island, NY 10305, USA"}, {"lat": 40.5729336, "lng": -74.12986839999999, "zip": "10306", "place_name": "Staten Island, NY 10306, USA"}, {"lat": 40.5070853, "lng": -74.2443436, "zip": "10307", "place_name": "Staten Island, NY 10307, USA"}, {"lat": 40.5535039, "lng": -74.1504204, "zip": "10308", "place_name": "Staten Island, NY 10308, USA"}, {"lat": 40.5265593, "lng": -74.22380199999999, "zip": "10309", "place_name": "Staten Island, NY 10309, USA"}, {"lat": 40.6307451, "lng": -74.1181234, "zip": "10310", "place_name": "Staten Island, NY 10310, USA"}, {"lat": 40.6040843, "lng": -74.18237669999999, "zip": "10311", "place_name": "Staten Island, NY 10311, USA"}, {"lat": 40.555548, "lng": -74.1827119, "zip": "10312", "place_name": "Staten Island, NY 10312, USA"}, {"lat": 40.5952146, "lng": -74.1827119, "zip": "10314", "place_name": "Staten Island, NY 10314, USA"}, {"lat": 40.8187386, "lng": -73.9271644, "zip": "10451", "place_name": "Bronx, NY 10451, USA"}, {"lat": 40.8376318, "lng": -73.92128579999999, "zip": "10452", "place_name": "Bronx, NY 10452, USA"}, {"lat": 40.8515872, "lng": -73.9154069, "zip": "10453", "place_name": "Bronx, NY 10453, USA"}, {"lat": 40.8022594, "lng": -73.9154069, "zip": "10454", "place_name": "Bronx, NY 10454, USA"}, {"lat": 40.8147803, "lng": -73.90805809999999, "zip": "10455", "place_name": "Bronx, NY 10455, USA"}, {"lat": 40.83102239999999, "lng": -73.9095279, "zip": "10456", "place_name": "Bronx, NY 10456, USA"}, {"lat": 40.84413869999999, "lng": -73.8977693, "zip": "10457", "place_name": "Bronx, NY 10457, USA"}, {"lat": 40.8621792, "lng": -73.88601, "zip": "10458", "place_name": "Bronx, NY 10458, USA"}, {"lat": 40.8285039, "lng": -73.8918897, "zip": "10459", "place_name": "Bronx, NY 10459, USA"}, {"lat": 40.841618, "lng": -73.8801301, "zip": "10460", "place_name": "Bronx, NY 10460, USA"}, {"lat": 40.8476284, "lng": -73.8360251, "zip": "10461", "place_name": "Bronx, NY 10461, USA"}, {"lat": 40.8382522, "lng": -73.8566087, "zip": "10462", "place_name": "Bronx, NY 10462, USA"}, {"lat": 40.8803247, "lng": -73.9095279, "zip": "10463", "place_name": "Bronx, NY 10463, USA"}, {"lat": 40.864318, "lng": -73.7977928, "zip": "10464", "place_name": "Bronx, NY 10464, USA"}, {"lat": 40.8262186, "lng": -73.8242621, "zip": "10465", "place_name": "Bronx, NY 10465, USA"}, {"lat": 40.8887394, "lng": -73.8477874, "zip": "10466", "place_name": "Bronx, NY 10466, USA"}, {"lat": 40.8723987, "lng": -73.8713099, "zip": "10467", "place_name": "Bronx, NY 10467, USA"}, {"lat": 40.8687887, "lng": -73.8977693, "zip": "10468", "place_name": "Bronx, NY 10468, USA"}, {"lat": 40.8690303, "lng": -73.8477874, "zip": "10469", "place_name": "Bronx, NY 10469, USA"}, {"lat": 40.89907669999999, "lng": -73.86836970000002, "zip": "10470", "place_name": "Bronx, NY 10470, USA"}, {"lat": 40.8971509, "lng": -73.9065883, "zip": "10471", "place_name": "Bronx, NY 10471, USA"}, {"lat": 40.8300731, "lng": -73.86836970000002, "zip": "10472", "place_name": "Bronx, NY 10472, USA"}, {"lat": 40.811547, "lng": -73.859549, "zip": "10473", "place_name": "Bronx, NY 10473, USA"}, {"lat": 40.8050442, "lng": -73.8830701, "zip": "10474", "place_name": "Bronx, NY 10474, USA"}, {"lat": 40.87347, "lng": -73.8272029, "zip": "10475", "place_name": "Bronx, NY 10475, USA"}, {"lat": 40.720444, "lng": -73.706594, "zip": "11001", "place_name": "Floral Park, NY 11001, USA"}, {"lat": 40.7006866, "lng": -73.706594, "zip": "11003", "place_name": "Elmont, NY 11003, USA"}, {"lat": 40.7430884, "lng": -73.7095365, "zip": "11004", "place_name": "Glen Oaks, NY 11004, USA"}, {"lat": 40.7568752, "lng": -73.71100779999999, "zip": "11005", "place_name": "Floral Park, NY 11005, USA"}, {"lat": 40.7466623, "lng": -73.6830521, "zip": "11040", "place_name": "New Hyde Park, NY 11040, USA"}, {"lat": 40.7443091, "lng": -73.9418603, "zip": "11101", "place_name": "Long Island City, NY 11101, USA"}, {"lat": 40.7732937, "lng": -73.9286341, "zip": "11102", "place_name": "Astoria, NY 11102, USA"}, {"lat": 40.7633726, "lng": -73.9109977, "zip": "11103", "place_name": "Astoria, NY 11103, USA"}, {"lat": 40.7448741, "lng": -73.91981609999999, "zip": "11104", "place_name": "Sunnyside, NY 11104, USA"}, {"lat": 40.7787902, "lng": -73.9065883, "zip": "11105", "place_name": "New York, NY 11105, USA"}, {"lat": 40.7595044, "lng": -73.9271644, "zip": "11106", "place_name": "Queens, NY 11106, USA"}, {"lat": 40.7449081, "lng": -73.95692249999999, "zip": "11109", "place_name": "Long Island City, NY 11109, USA"}, {"lat": 40.6986772, "lng": -73.9859414, "zip": "11201", "place_name": "Brooklyn, NY 11201, USA"}, {"lat": 40.6515882, "lng": -73.93304289999999, "zip": "11203", "place_name": "Brooklyn, NY 11203, USA"}, {"lat": 40.6195067, "lng": -73.9859414, "zip": "11204", "place_name": "Brooklyn, NY 11204, USA"}, {"lat": 40.6945036, "lng": -73.9565551, "zip": "11205", "place_name": "Brooklyn, NY 11205, USA"}, {"lat": 40.7047738, "lng": -73.9418603, "zip": "11206", "place_name": "Brooklyn, NY 11206, USA"}, {"lat": 40.6655101, "lng": -73.8918897, "zip": "11207", "place_name": "Brooklyn, NY 11207, USA"}, {"lat": 40.6749343, "lng": -73.8713099, "zip": "11208", "place_name": "Brooklyn, NY 11208, USA"}, {"lat": 40.6212119, "lng": -74.03294989999999, "zip": "11209", "place_name": "Brooklyn, NY 11209, USA"}, {"lat": 40.6285158, "lng": -73.9447994, "zip": "11210", "place_name": "Brooklyn, NY 11210, USA"}, {"lat": 40.7093358, "lng": -73.9565551, "zip": "11211", "place_name": "Brooklyn, NY 11211, USA"}, {"lat": 40.6639181, "lng": -73.9154069, "zip": "11212", "place_name": "Brooklyn, NY 11212, USA"}, {"lat": 40.6722134, "lng": -73.93892129999999, "zip": "11213", "place_name": "Brooklyn, NY 11213, USA"}, {"lat": 40.6042332, "lng": -74.00259989999999, "zip": "11214", "place_name": "Brooklyn, NY 11214, USA"}, {"lat": 40.6681669, "lng": -73.9800645, "zip": "11215", "place_name": "Brooklyn, NY 11215, USA"}, {"lat": 40.6788319, "lng": -73.9506774, "zip": "11216", "place_name": "Brooklyn, NY 11216, USA"}, {"lat": 40.6815619, "lng": -73.9785952, "zip": "11217", "place_name": "Brooklyn, NY 11217, USA"}, {"lat": 40.6483744, "lng": -73.9800645, "zip": "11218", "place_name": "Brooklyn, NY 11218, USA"}, {"lat": 40.6310753, "lng": -73.9976946, "zip": "11219", "place_name": "Brooklyn, NY 11219, USA"}, {"lat": 40.6385229, "lng": -74.0153231, "zip": "11220", "place_name": "Brooklyn, NY 11220, USA"}, {"lat": 40.6903213, "lng": -73.9271644, "zip": "11221", "place_name": "Brooklyn, NY 11221, USA"}, {"lat": 40.7282702, "lng": -73.9506774, "zip": "11222", "place_name": "Brooklyn, NY 11222, USA"}, {"lat": 40.6009233, "lng": -73.977126, "zip": "11223", "place_name": "Brooklyn, NY 11223, USA"}, {"lat": 40.5749261, "lng": -73.9859414, "zip": "11224", "place_name": "Brooklyn, NY 11224, USA"}, {"lat": 40.6648278, "lng": -73.9565551, "zip": "11225", "place_name": "Brooklyn, NY 11225, USA"}, {"lat": 40.6470923, "lng": -73.9536163, "zip": "11226", "place_name": "Brooklyn, NY 11226, USA"}, {"lat": 40.6137658, "lng": -74.0153231, "zip": "11228", "place_name": "Brooklyn, NY 11228, USA"}, {"lat": 40.59880769999999, "lng": -73.9447994, "zip": "11229", "place_name": "Brooklyn, NY 11229, USA"}, {"lat": 40.6190629, "lng": -73.96537150000002, "zip": "11230", "place_name": "Brooklyn, NY 11230, USA"}, {"lat": 40.6772802, "lng": -74.0094471, "zip": "11231", "place_name": "Brooklyn, NY 11231, USA"}, {"lat": 40.6560436, "lng": -74.0079781, "zip": "11232", "place_name": "Brooklyn, NY 11232, USA"}, {"lat": 40.6795939, "lng": -73.92128579999999, "zip": "11233", "place_name": "Brooklyn, NY 11233, USA"}, {"lat": 40.6007956, "lng": -73.9065883, "zip": "11234", "place_name": "Brooklyn, NY 11234, USA"}, {"lat": 40.5860069, "lng": -73.9418603, "zip": "11235", "place_name": "Brooklyn, NY 11235, USA"}, {"lat": 40.63871959999999, "lng": -73.8948295, "zip": "11236", "place_name": "Brooklyn, NY 11236, USA"}, {"lat": 40.7043156, "lng": -73.92128579999999, "zip": "11237", "place_name": "Brooklyn, NY 11237, USA"}, {"lat": 40.6805029, "lng": -73.96243270000001, "zip": "11238", "place_name": "Brooklyn, NY 11238, USA"}, {"lat": 40.6516509, "lng": -73.8727799, "zip": "11239", "place_name": "Brooklyn, NY 11239, USA"}, {"lat": 40.7817222, "lng": -73.8280679, "zip": "11351", "place_name": "Flushing, NY 11351, USA"}, {"lat": 40.7699016, "lng": -73.8272029, "zip": "11354", "place_name": "Flushing, NY 11354, USA"}, {"lat": 40.7493096, "lng": -73.8213213, "zip": "11355", "place_name": "Flushing, NY 11355, USA"}, {"lat": 40.7901266, "lng": -73.8477874, "zip": "11356", "place_name": "College Point, NY 11356, USA"}, {"lat": 40.7850656, "lng": -73.8124984, "zip": "11357", "place_name": "Whitestone, NY 11357, USA"}, {"lat": 40.76074300000001, "lng": -73.7977928, "zip": "11358", "place_name": "Flushing, NY 11358, USA"}, {"lat": 40.7908824, "lng": -73.7757324, "zip": "11359", "place_name": "Bayside, NY 11359, USA"}, {"lat": 40.7779482, "lng": -73.7801447, "zip": "11360", "place_name": "Bayside, NY 11360, USA"}, {"lat": 40.7622954, "lng": -73.7742616, "zip": "11361", "place_name": "Bayside, NY 11361, USA"}, {"lat": 40.7612957, "lng": -73.7330753, "zip": "11362", "place_name": "Little Neck, NY 11362, USA"}, {"lat": 40.7728635, "lng": -73.74484369999999, "zip": "11363", "place_name": "Little Neck, NY 11363, USA"}, {"lat": 40.7469886, "lng": -73.7536695, "zip": "11364", "place_name": "Oakland Gardens, NY 11364, USA"}, {"lat": 40.7421943, "lng": -73.7889689, "zip": "11365", "place_name": "Fresh Meadows, NY 11365, USA"}, {"lat": 40.7284018, "lng": -73.7874983, "zip": "11366", "place_name": "Fresh Meadows, NY 11366, USA"}, {"lat": 40.7295546, "lng": -73.8213213, "zip": "11367", "place_name": "Flushing, NY 11367, USA"}, {"lat": 40.7506343, "lng": -73.8477874, "zip": "11368", "place_name": "Corona, NY 11368, USA"}, {"lat": 40.7659246, "lng": -73.86836970000002, "zip": "11369", "place_name": "East Elmhurst, NY 11369, USA"}, {"lat": 40.7594109, "lng": -73.8918897, "zip": "11370", "place_name": "East Elmhurst, NY 11370, USA"}, {"lat": 40.7766392, "lng": -73.87425, "zip": "11371", "place_name": "Flushing, NY 11371, USA"}, {"lat": 40.7527924, "lng": -73.8801301, "zip": "11372", "place_name": "Jackson Heights, NY 11372, USA"}, {"lat": 40.737975, "lng": -73.8801301, "zip": "11373", "place_name": "Queens, NY 11373, USA"}, {"lat": 40.72557219999999, "lng": -73.8624893, "zip": "11374", "place_name": "Rego Park, NY 11374, USA"}, {"lat": 40.7245678, "lng": -73.8457658, "zip": "11375", "place_name": "Forest Hills, NY 11375, USA"}, {"lat": 40.74133339999999, "lng": -73.90364869999999, "zip": "11377", "place_name": "Woodside, NY 11377, USA"}, {"lat": 40.7224092, "lng": -73.9095279, "zip": "11378", "place_name": "Maspeth, NY 11378, USA"}, {"lat": 40.7182124, "lng": -73.8801301, "zip": "11379", "place_name": "Middle Village, NY 11379, USA"}, {"lat": 40.6980708, "lng": -73.8948295, "zip": "11385", "place_name": "Ridgewood, NY 11385, USA"}, {"lat": 40.69300670000001, "lng": -73.7389596, "zip": "11411", "place_name": "Cambria Heights, NY 11411, USA"}, {"lat": 40.6963978, "lng": -73.762495, "zip": "11412", "place_name": "St. Albans, NY 11412, USA"}, {"lat": 40.6679426, "lng": -73.7536695, "zip": "11413", "place_name": "Springfield Gardens, NY 11413, USA"}, {"lat": 40.6616787, "lng": -73.8477874, "zip": "11414", "place_name": "Howard Beach, NY 11414, USA"}, {"lat": 40.7071412, "lng": -73.82867329999999, "zip": "11415", "place_name": "Kew Gardens, NY 11415, USA"}, {"lat": 40.6853768, "lng": -73.8492576, "zip": "11416", "place_name": "Ozone Park, NY 11416, USA"}, {"lat": 40.6736207, "lng": -73.8448469, "zip": "11417", "place_name": "Ozone Park, NY 11417, USA"}, {"lat": 40.6966538, "lng": -73.83308439999999, "zip": "11418", "place_name": "Richmond Hill, NY 11418, USA"}, {"lat": 40.6900246, "lng": -73.8213213, "zip": "11419", "place_name": "South Richmond Hill, NY 11419, USA"}, {"lat": 40.6764003, "lng": -73.8124984, "zip": "11420", "place_name": "South Ozone Park, NY 11420, USA"}, {"lat": 40.693029, "lng": -73.859549, "zip": "11421", "place_name": "Woodhaven, NY 11421, USA"}, {"lat": 40.6584068, "lng": -73.7389596, "zip": "11422", "place_name": "Rosedale, NY 11422, USA"}, {"lat": 40.71700730000001, "lng": -73.7683784, "zip": "11423", "place_name": "Hollis, NY 11423, USA"}, {"lat": 40.7133076, "lng": -73.8285897, "zip": "11424", "place_name": "Jamaica, NY 11424, USA"}, {"lat": 40.68775249999999, "lng": -73.72608749999999, "zip": "11425", "place_name": "Jamaica, NY 11425, USA"}, {"lat": 40.7349144, "lng": -73.7213063, "zip": "11426", "place_name": "Jamaica, NY 11426, USA"}, {"lat": 40.7292825, "lng": -73.75072759999999, "zip": "11427", "place_name": "Queens Village, NY 11427, USA"}, {"lat": 40.7226473, "lng": -73.7389596, "zip": "11428", "place_name": "Queens Village, NY 11428, USA"}, {"lat": 40.7078289, "lng": -73.7389596, "zip": "11429", "place_name": "Queens Village, NY 11429, USA"}, {"lat": 40.6433507, "lng": -73.7889689, "zip": "11430", "place_name": "Jamaica, NY 11430, USA"}, {"lat": 40.7154518, "lng": -73.7919103, "zip": "11432", "place_name": "Jamaica, NY 11432, USA"}, {"lat": 40.69978340000001, "lng": -73.7860276, "zip": "11433", "place_name": "Jamaica, NY 11433, USA"}, {"lat": 40.6812166, "lng": -73.7772032, "zip": "11434", "place_name": "Jamaica, NY 11434, USA"}, {"lat": 40.7031635, "lng": -73.8095574, "zip": "11435", "place_name": "Jamaica, NY 11435, USA"}, {"lat": 40.6718171, "lng": -73.7977928, "zip": "11436", "place_name": "Jamaica, NY 11436, USA"}, {"lat": 40.7015189, "lng": -73.7959546, "zip": "11451", "place_name": "Jamaica, NY 11451, USA"}, {"lat": 40.6024346, "lng": -73.762495, "zip": "11691", "place_name": "Far Rockaway, NY 11691, USA"}, {"lat": 40.592658, "lng": -73.7977928, "zip": "11692", "place_name": "Arverne, NY 11692, USA"}, {"lat": 40.6166766, "lng": -73.8272029, "zip": "11693", "place_name": "Far Rockaway, NY 11693, USA"}, {"lat": 40.5722132, "lng": -73.8624893, "zip": "11694", "place_name": "Rockaway Park, NY 11694, USA"}, {"lat": 40.5591088, "lng": -73.9095279, "zip": "11697", "place_name": "Breezy Point, NY 11697, USA"}, {"lat": 40.8456135, "lng": -73.5329091, "zip": "11732", "place_name": "East Norwich, NY 11732, USA"}, {"lat": 40.78530840000001, "lng": -73.541744, "zip": "11753", "place_name": "Jericho, NY 11753, USA"}, {"lat": 40.7226698, "lng": -73.51818329999999, "zip": "11756", "place_name": "Levittown, NY 11756, USA"}, {"lat": 40.7006866, "lng": -73.706594, "zip": "11003", "place_name": "Elmont, NY 11003, USA"}, {"lat": 40.666393, "lng": -73.471054, "zip": "11758", "place_name": "Massapequa, NY 11758, USA"}, {"lat": 40.6826867, "lng": -73.4474855, "zip": "11762", "place_name": "Massapequa Park, NY 11762, USA"}, {"lat": 40.7054571, "lng": -73.67128009999999, "zip": "11010", "place_name": "Franklin Square, NY 11010, USA"}, {"lat": 40.7715091, "lng": -73.7183639, "zip": "11020", "place_name": "Great Neck, NY 11020, USA"}, {"lat": 40.7851185, "lng": -73.7271909, "zip": "11021", "place_name": "Great Neck, NY 11021, USA"}, {"lat": 40.8855531, "lng": -73.5535234, "zip": "11765", "place_name": "Mill Neck, NY 11765, USA"}, {"lat": 40.787368, "lng": -73.7246251, "zip": "11022", "place_name": "Great Neck, NY 11022, USA"}, {"lat": 40.8007661, "lng": -73.7330753, "zip": "11023", "place_name": "Great Neck, NY 11023, USA"}, {"lat": 40.8143687, "lng": -73.7419017, "zip": "11024", "place_name": "Great Neck, NY 11024, USA"}, {"lat": 40.8722643, "lng": -73.52996399999999, "zip": "11771", "place_name": "Oyster Bay, NY 11771, USA"}, {"lat": 40.7960005, "lng": -73.6830521, "zip": "11030", "place_name": "Manhasset, NY 11030, USA"}, {"lat": 40.7466623, "lng": -73.6830521, "zip": "11040", "place_name": "New Hyde Park, NY 11040, USA"}, {"lat": 40.83, "lng": -73.5, "zip": "11773", "place_name": "Syosset, NY 11773, USA"}, {"lat": 40.7572158, "lng": -73.69629479999999, "zip": "11042", "place_name": "New Hyde Park, NY 11042, USA"}, {"lat": 40.84700100000001, "lng": -73.69482339999999, "zip": "11050", "place_name": "Port Washington, NY 11050, USA"}, {"lat": 40.65996760000001, "lng": -73.49462, "zip": "11783", "place_name": "Seaford, NY 11783, USA"}, {"lat": 40.8334827, "lng": -73.5005111, "zip": "11791", "place_name": "Syosset, NY 11791, USA"}, {"lat": 40.6814503, "lng": -73.506402, "zip": "11793", "place_name": "Wantagh, NY 11793, USA"}, {"lat": 40.8144014, "lng": -73.4772682, "zip": "11797", "place_name": "Woodbury, NY 11797, USA"}, {"lat": 40.7621388, "lng": -73.51818329999999, "zip": "11801", "place_name": "Hicksville, NY 11801, USA"}, {"lat": 40.7848157, "lng": -73.471054, "zip": "11803", "place_name": "Plainview, NY 11803, USA"}, {"lat": 40.7535026, "lng": -73.4592701, "zip": "11804", "place_name": "Old Bethpage, NY 11804, USA"}, {"lat": 40.7476654, "lng": -73.6389038, "zip": "11501", "place_name": "Mineola, NY 11501, USA"}, {"lat": 40.7691114, "lng": -73.6506776, "zip": "11507", "place_name": "Albertson, NY 11507, USA"}, {"lat": 40.5850432, "lng": -73.74484369999999, "zip": "11509", "place_name": "Atlantic Beach, NY 11509, USA"}, {"lat": 40.6260153, "lng": -73.6006342, "zip": "11510", "place_name": "Baldwin, NY 11510, USA"}, {"lat": 40.7491789, "lng": -73.61535409999999, "zip": "11514", "place_name": "Carle Place, NY 11514, USA"}, {"lat": 40.6270365, "lng": -73.7271909, "zip": "11516", "place_name": "Cedarhurst, NY 11516, USA"}, {"lat": 40.6383133, "lng": -73.6683371, "zip": "11518", "place_name": "East Rockaway, NY 11518, USA"}, {"lat": 40.6440775, "lng": -73.5888575, "zip": "11520", "place_name": "Freeport, NY 11520, USA"}, {"lat": 40.7217973, "lng": -73.6477342, "zip": "11530", "place_name": "Garden City, NY 11530, USA"}, {"lat": 40.72, "lng": -73.63, "zip": "11531", "place_name": "Garden City, NY 11531, USA"}, {"lat": 40.8663111, "lng": -73.6241855, "zip": "11542", "place_name": "Glen Cove, NY 11542, USA"}, {"lat": 40.831613, "lng": -73.5888575, "zip": "11545", "place_name": "Glen Head, NY 11545, USA"}, {"lat": 40.83235680000001, "lng": -73.6447908, "zip": "11547", "place_name": "Glenwood Landing, NY 11547, USA"}, {"lat": 40.8155959, "lng": -73.6227136, "zip": "11548", "place_name": "Greenvale, NY 11548, USA"}, {"lat": 40.7132609, "lng": -73.62247289999999, "zip": "11549", "place_name": "Hempstead, NY 11549, USA"}, {"lat": 40.6986257, "lng": -73.6241855, "zip": "11550", "place_name": "Hempstead, NY 11550, USA"}, {"lat": 40.692165, "lng": -73.6477342, "zip": "11552", "place_name": "West Hempstead, NY 11552, USA"}, {"lat": 40.7033646, "lng": -73.5888575, "zip": "11553", "place_name": "Uniondale, NY 11553, USA"}, {"lat": 40.7179622, "lng": -73.5535234, "zip": "11554", "place_name": "East Meadow, NY 11554, USA"}, {"lat": 40.72, "lng": -73.58, "zip": "11555", "place_name": "Uniondale, NY 11555, USA"}, {"lat": 40.636775, "lng": -73.69188059999999, "zip": "11557", "place_name": "Hewlett, NY 11557, USA"}, {"lat": 40.6031778, "lng": -73.6477342, "zip": "11558", "place_name": "Island Park, NY 11558, USA"}, {"lat": 40.60349830000001, "lng": -73.7183639, "zip": "11559", "place_name": "Lawrence, NY 11559, USA"}, {"lat": 40.8866446, "lng": -73.59474589999999, "zip": "11560", "place_name": "Locust Valley, NY 11560, USA"}, {"lat": 40.5895272, "lng": -73.6389038, "zip": "11561", "place_name": "Long Beach, NY 11561, USA"}, {"lat": 40.6589417, "lng": -73.6742232, "zip": "11563", "place_name": "Lynbrook, NY 11563, USA"}, {"lat": 40.672917, "lng": -73.6683371, "zip": "11565", "place_name": "Malverne, NY 11565, USA"}, {"lat": 40.6488134, "lng": -73.5535234, "zip": "11566", "place_name": "Merrick, NY 11566, USA"}, {"lat": 40.788109, "lng": -73.59474589999999, "zip": "11568", "place_name": "Old Westbury, NY 11568, USA"}, {"lat": 40.6031326, "lng": -73.56235749999999, "zip": "11569", "place_name": "Point Lookout, NY 11569, USA"}, {"lat": 40.6608095, "lng": -73.6359602, "zip": "11570", "place_name": "Rockville Centre, NY 11570, USA"}, {"lat": 40.6599999, "lng": -73.65, "zip": "11571", "place_name": "Rockville Centre, NY 11571, USA"}, {"lat": 40.63114729999999, "lng": -73.6359602, "zip": "11572", "place_name": "Oceanside, NY 11572, USA"}, {"lat": 40.6786944, "lng": -73.5889997, "zip": "11575", "place_name": "Roosevelt, NY 11575, USA"}, {"lat": 40.7987048, "lng": -73.6506776, "zip": "11576", "place_name": "Roslyn, NY 11576, USA"}, {"lat": 40.7793075, "lng": -73.6359602, "zip": "11577", "place_name": "Roslyn Heights, NY 11577, USA"}, {"lat": 40.842212, "lng": -73.6447908, "zip": "11579", "place_name": "Sea Cliff, NY 11579, USA"}, {"lat": 40.67103789999999, "lng": -73.706594, "zip": "11580", "place_name": "Valley Stream, NY 11580, USA"}, {"lat": 40.6550108, "lng": -73.71542149999999, "zip": "11581", "place_name": "Valley Stream, NY 11581, USA"}, {"lat": 40.6599999, "lng": -73.7099999, "zip": "11582", "place_name": "Valley Stream, NY 11582, USA"}, {"lat": 40.7452159, "lng": -73.5711912, "zip": "11590", "place_name": "Westbury, NY 11590, USA"}, {"lat": 40.7583894, "lng": -73.6447908, "zip": "11596", "place_name": "Williston Park, NY 11596, USA"}, {"lat": 40.6294348, "lng": -73.7095365, "zip": "11598", "place_name": "Woodmere, NY 11598, USA"}, {"lat": 40.906958, "lng": -73.5653021, "zip": "11709", "place_name": "Bayville, NY 11709, USA"}, {"lat": 40.6651384, "lng": -73.52996399999999, "zip": "11710", "place_name": "Bellmore, NY 11710, USA"}, {"lat": 40.7470968, "lng": -73.4828374, "zip": "11714", "place_name": "Bethpage, NY 11714, USA"}, {"lat": 40.8818158, "lng": -72.99920130000001, "zip": "11727", "place_name": "Coram, NY 11727, USA"}, {"lat": 40.7622141, "lng": -73.317812, "zip": "11729", "place_name": "Deer Park, NY 11729, USA"}, {"lat": 40.7231906, "lng": -73.1880618, "zip": "11730", "place_name": "East Islip, NY 11730, USA"}, {"lat": 40.8647497, "lng": -73.3119159, "zip": "11731", "place_name": "East Northport, NY 11731, USA"}, {"lat": 40.9509762, "lng": -73.0995528, "zip": "11733", "place_name": "Setauket- East Setauket, NY 11733, USA"}, {"lat": 40.7245083, "lng": -73.4298073, "zip": "11735", "place_name": "Farmingdale, NY 11735, USA"}, {"lat": 40.8380145, "lng": -73.0346244, "zip": "11738", "place_name": "Farmingville, NY 11738, USA"}, {"lat": 40.7178964, "lng": -73.1526623, "zip": "11739", "place_name": "Great River, NY 11739, USA"}, {"lat": 40.8676869, "lng": -73.364975, "zip": "11740", "place_name": "Greenlawn, NY 11740, USA"}, {"lat": 40.7941562, "lng": -73.0700421, "zip": "11741", "place_name": "Holbrook, NY 11741, USA"}, {"lat": 40.8085015, "lng": -73.0346244, "zip": "11742", "place_name": "Holtsville, NY 11742, USA"}, {"lat": 40.8786991, "lng": -73.4062342, "zip": "11743", "place_name": "Huntington, NY 11743, USA"}, {"lat": 40.8126648, "lng": -73.3590802, "zip": "11746", "place_name": "Huntington Station, NY 11746, USA"}, {"lat": 40.7836826, "lng": -73.4298073, "zip": "11747", "place_name": "Melville, NY 11747, USA"}, {"lat": 40.8071938, "lng": -73.1733127, "zip": "11749", "place_name": "Islandia, NY 11749, USA"}, {"lat": 40.7267132, "lng": -73.21165839999999, "zip": "11751", "place_name": "Islip, NY 11751, USA"}, {"lat": 40.7608524, "lng": -73.1762626, "zip": "11752", "place_name": "Islip Terrace, NY 11752, USA"}, {"lat": 40.8935729, "lng": -73.2411506, "zip": "11754", "place_name": "Kings Park, NY 11754, USA"}, {"lat": 40.8602892, "lng": -73.11725729999999, "zip": "11755", "place_name": "Lake Grove, NY 11755, USA"}, {"lat": 40.6821467, "lng": -73.3767641, "zip": "11757", "place_name": "Lindenhurst, NY 11757, USA"}, {"lat": 40.8348987, "lng": -72.9814877, "zip": "11763", "place_name": "Medford, NY 11763, USA"}, {"lat": 40.9389569, "lng": -72.98739239999999, "zip": "11764", "place_name": "Miller Place, NY 11764, USA"}, {"lat": 40.9443162, "lng": -73.0228173, "zip": "11766", "place_name": "Mt Sinai, NY 11766, USA"}, {"lat": 40.8441592, "lng": -73.1408613, "zip": "11767", "place_name": "Nesconset, NY 11767, USA"}, {"lat": 40.9075916, "lng": -73.3354993, "zip": "11768", "place_name": "Northport, NY 11768, USA"}, {"lat": 40.7340752, "lng": -73.12905959999999, "zip": "11769", "place_name": "Oakdale, NY 11769, USA"}, {"lat": 40.6469432, "lng": -73.148237, "zip": "11770", "place_name": "Ocean Beach, NY 11770, USA"}, {"lat": 40.7758652, "lng": -72.9814877, "zip": "11772", "place_name": "Patchogue, NY 11772, USA"}, {"lat": 40.79, "lng": -73.42, "zip": "11775", "place_name": "Melville, NY 11775, USA"}, {"lat": 40.90860139999999, "lng": -73.0464309, "zip": "11776", "place_name": "Port Jefferson Station, NY 11776, USA"}, {"lat": 40.9514424, "lng": -73.0700421, "zip": "11777", "place_name": "Port Jefferson, NY 11777, USA"}, {"lat": 40.9456166, "lng": -72.9342451, "zip": "11778", "place_name": "Rocky Point, NY 11778, USA"}, {"lat": 40.8169046, "lng": -73.1231585, "zip": "11779", "place_name": "Ronkonkoma, NY 11779, USA"}, {"lat": 40.9026612, "lng": -73.17036279999999, "zip": "11780", "place_name": "St James, NY 11780, USA"}, {"lat": 40.7368396, "lng": -73.0818468, "zip": "11782", "place_name": "Sayville, NY 11782, USA"}, {"lat": 40.8692939, "lng": -73.0464309, "zip": "11784", "place_name": "Selden, NY 11784, USA"}, {"lat": 40.9580487, "lng": -72.88699299999999, "zip": "11786", "place_name": "Shoreham, NY 11786, USA"}, {"lat": 40.8507116, "lng": -73.2175571, "zip": "11787", "place_name": "Smithtown, NY 11787, USA"}, {"lat": 40.8153846, "lng": -73.21165839999999, "zip": "11788", "place_name": "Hauppauge, NY 11788, USA"}, {"lat": 40.966609, "lng": -72.97558289999999, "zip": "11789", "place_name": "Sound Beach, NY 11789, USA"}, {"lat": 40.8978388, "lng": -73.1054544, "zip": "11790", "place_name": "Stony Brook, NY 11790, USA"}, {"lat": 40.950835, "lng": -72.8397317, "zip": "11792", "place_name": "Wading River, NY 11792, USA"}, {"lat": 40.9132244, "lng": -73.1261091, "zip": "11794", "place_name": "Stony Brook, NY 11794, USA"}, {"lat": 40.7111586, "lng": -73.3060197, "zip": "11795", "place_name": "West Islip, NY 11795, USA"}, {"lat": 40.7325535, "lng": -73.10250359999999, "zip": "11796", "place_name": "West Sayville, NY 11796, USA"}, {"lat": 40.7512158, "lng": -73.3767641, "zip": "11798", "place_name": "Wyandanch, NY 11798, USA"}, {"lat": 40.9413697, "lng": -72.6505957, "zip": "11901", "place_name": "Riverhead, NY 11901, USA"}, {"lat": 40.9928166, "lng": -72.106068, "zip": "11930", "place_name": "Amagansett, NY 11930, USA"}, {"lat": 40.9394354, "lng": -72.6376056, "zip": "11931", "place_name": "Aquebogue, NY 11931, USA"}, {"lat": 40.9425715, "lng": -72.3133529, "zip": "11932", "place_name": "Bridgehampton, NY 11932, USA"}, {"lat": 40.9065698, "lng": -72.7436046, "zip": "11933", "place_name": "Calverton, NY 11933, USA"}, {"lat": 40.8002863, "lng": -72.7865518, "zip": "11934", "place_name": "Center Moriches, NY 11934, USA"}, {"lat": 41.0135818, "lng": -72.4849861, "zip": "11935", "place_name": "Cutchogue, NY 11935, USA"}, {"lat": 41.00415659999999, "lng": -72.1771541, "zip": "11937", "place_name": "East Hampton, NY 11937, USA"}, {"lat": 41.1243899, "lng": -72.319273, "zip": "11939", "place_name": "East Marion, NY 11939, USA"}, {"lat": 40.8064934, "lng": -72.76291259999999, "zip": "11940", "place_name": "East Moriches, NY 11940, USA"}, {"lat": 40.8287116, "lng": -72.7156274, "zip": "11941", "place_name": "Eastport, NY 11941, USA"}, {"lat": 40.8555559, "lng": -72.6032895, "zip": "11942", "place_name": "East Quogue, NY 11942, USA"}, {"lat": 41.1123302, "lng": -72.36663, "zip": "11944", "place_name": "Greenport, NY 11944, USA"}, {"lat": 40.88378460000001, "lng": -72.53231389999999, "zip": "11946", "place_name": "Hampton Bays, NY 11946, USA"}, {"lat": 40.9472292, "lng": -72.5865618, "zip": "11947", "place_name": "Jamesport, NY 11947, USA"}, {"lat": 40.9639086, "lng": -72.558932, "zip": "11948", "place_name": "Laurel, NY 11948, USA"}, {"lat": 40.8730826, "lng": -72.7806422, "zip": "11949", "place_name": "Manorville, NY 11949, USA"}, {"lat": 40.8093249, "lng": -72.8456399, "zip": "11950", "place_name": "Mastic, NY 11950, USA"}, {"lat": 40.7681722, "lng": -72.8338234, "zip": "11951", "place_name": "Mastic Beach, NY 11951, USA"}, {"lat": 41.0050736, "lng": -72.5559746, "zip": "11952", "place_name": "Mattituck, NY 11952, USA"}, {"lat": 40.8902916, "lng": -72.9578676, "zip": "11953", "place_name": "Middle Island, NY 11953, USA"}, {"lat": 41.0443143, "lng": -71.940134, "zip": "11954", "place_name": "Montauk, NY 11954, USA"}, {"lat": 40.8057136, "lng": -72.82200639999999, "zip": "11955", "place_name": "Moriches, NY 11955, USA"}, {"lat": 40.9687358, "lng": -72.4642776, "zip": "11956", "place_name": "New Suffolk, NY 11956, USA"}, {"lat": 41.1364192, "lng": -72.271908, "zip": "11957", "place_name": "Orient, NY 11957, USA"}, {"lat": 41.0334156, "lng": -72.45540199999999, "zip": "11958", "place_name": "Peconic, NY 11958, USA"}, {"lat": 40.8133575, "lng": -72.6003326, "zip": "11959", "place_name": "Quogue, NY 11959, USA"}, {"lat": 40.8119684, "lng": -72.718583, "zip": "11960", "place_name": "Remsenburg, NY 11960, USA"}, {"lat": 40.8991599, "lng": -72.88699299999999, "zip": "11961", "place_name": "Ridge, NY 11961, USA"}, {"lat": 40.9213308, "lng": -72.271908, "zip": "11962", "place_name": "Sagaponack, NY 11962, USA"}, {"lat": 41.0092107, "lng": -72.3015121, "zip": "11963", "place_name": "Sag Harbor, NY 11963, USA"}, {"lat": 41.0539297, "lng": -72.3370328, "zip": "11964", "place_name": "Shelter Island, NY 11964, USA"}, {"lat": 41.0851131, "lng": -72.3488721, "zip": "11965", "place_name": "Shelter Island Heights, NY 11965, USA"}, {"lat": 40.8030958, "lng": -72.86927109999999, "zip": "11967", "place_name": "Shirley, NY 11967, USA"}, {"lat": 40.9045168, "lng": -72.4139787, "zip": "11968", "place_name": "Southampton, NY 11968, USA"}, {"lat": 40.88, "lng": -72.39, "zip": "11969", "place_name": "Southampton, NY 11969, USA"}, {"lat": 40.9372643, "lng": -72.5736027, "zip": "11970", "place_name": "South Jamesport, NY 11970, USA"}, {"lat": 41.0648622, "lng": -72.4376499, "zip": "11971", "place_name": "Southold, NY 11971, USA"}, {"lat": 40.8193118, "lng": -72.70655219999999, "zip": "11972", "place_name": "Speonk, NY 11972, USA"}, {"lat": 40.9625791, "lng": -72.25414409999999, "zip": "11975", "place_name": "Wainscott, NY 11975, USA"}, {"lat": 40.9129534, "lng": -72.3429525, "zip": "11976", "place_name": "Water Mill, NY 11976, USA"}, {"lat": 40.834894, "lng": -72.6919814, "zip": "11977", "place_name": "Westhampton, NY 11977, USA"}, {"lat": 40.8432396, "lng": -72.6505957, "zip": "11978", "place_name": "Westhampton Beach, NY 11978, USA"}, {"lat": 40.8277344, "lng": -72.9342451, "zip": "11980", "place_name": "Yaphank, NY 11980, USA"}, {"lat": 41.26925079999999, "lng": -71.9905165, "zip": "06390", "place_name": "Fishers Island, NY 06390, USA"}, {"lat": 40.8179265, "lng": -73.0453137, "zip": "00501", "place_name": "Holtsville, NY 00501, USA"}, {"lat": 40.66761049999999, "lng": -73.4121277, "zip": "11701", "place_name": "Amityville, NY 11701, USA"}, {"lat": 40.6956692, "lng": -73.3256983, "zip": "11702", "place_name": "Babylon, NY 11702, USA"}, {"lat": 40.7343811, "lng": -73.32960369999999, "zip": "11703", "place_name": "North Babylon, NY 11703, USA"}, {"lat": 40.7181416, "lng": -73.3531852, "zip": "11704", "place_name": "West Babylon, NY 11704, USA"}, {"lat": 40.7451572, "lng": -73.0552854, "zip": "11705", "place_name": "Bayport, NY 11705, USA"}, {"lat": 40.7360384, "lng": -73.2411506, "zip": "11706", "place_name": "Bay Shore, NY 11706, USA"}, {"lat": 40.7, "lng": -73.33, "zip": "11707", "place_name": "West Babylon, NY 11707, USA"}, {"lat": 40.7843631, "lng": -72.94015089999999, "zip": "11713", "place_name": "Bellport, NY 11713, USA"}, {"lat": 40.7494305, "lng": -73.0346244, "zip": "11715", "place_name": "Blue Point, NY 11715, USA"}, {"lat": 40.7734855, "lng": -73.12905959999999, "zip": "11716", "place_name": "Bohemia, NY 11716, USA"}, {"lat": 40.7754622, "lng": -73.2411506, "zip": "11717", "place_name": "Brentwood, NY 11717, USA"}, {"lat": 40.7276613, "lng": -73.2676903, "zip": "11718", "place_name": "Brightwaters, NY 11718, USA"}, {"lat": 40.77897859999999, "lng": -72.9047136, "zip": "11719", "place_name": "Brookhaven, NY 11719, USA"}, {"lat": 40.86882629999999, "lng": -73.0759446, "zip": "11720", "place_name": "Centereach, NY 11720, USA"}, {"lat": 40.8989447, "lng": -73.3767641, "zip": "11721", "place_name": "Centerport, NY 11721, USA"}, {"lat": 40.7881249, "lng": -73.19396119999999, "zip": "11722", "place_name": "Central Islip, NY 11722, USA"}, {"lat": 40.8601669, "lng": -73.4474855, "zip": "11724", "place_name": "Cold Spring Harbor, NY 11724, USA"}, {"lat": 40.8357683, "lng": -73.28243309999999, "zip": "11725", "place_name": "Commack, NY 11725, USA"}, {"lat": 40.6777841, "lng": -73.3973936, "zip": "11726", "place_name": "Copiague, NY 11726, USA"}, {"lat": 41.2961228, "lng": -73.762495, "zip": "10501", "place_name": "Amawalk, NY 10501, USA"}, {"lat": 41.012961, "lng": -73.8389657, "zip": "10502", "place_name": "Ardsley, NY 10502, USA"}, {"lat": 41.02647090000001, "lng": -73.87535249999999, "zip": "10503", "place_name": "Ardsley-On-Hudson, NY 10503, USA"}, {"lat": 41.1395518, "lng": -73.712479, "zip": "10504", "place_name": "Armonk, NY 10504, USA"}, {"lat": 41.3424505, "lng": -73.74484369999999, "zip": "10505", "place_name": "Baldwin Place, NY 10505, USA"}, {"lat": 41.1881032, "lng": -73.6418473, "zip": "10506", "place_name": "Bedford, NY 10506, USA"}, {"lat": 41.2300691, "lng": -73.69482339999999, "zip": "10507", "place_name": "Bedford Hills, NY 10507, USA"}, {"lat": 41.1345338, "lng": -73.8477874, "zip": "10510", "place_name": "Briarcliff Manor, NY 10510, USA"}, {"lat": 41.2672817, "lng": -73.9536163, "zip": "10511", "place_name": "Buchanan, NY 10511, USA"}, {"lat": 41.1693588, "lng": -73.78308609999999, "zip": "10514", "place_name": "Chappaqua, NY 10514, USA"}, {"lat": 41.2977828, "lng": -73.8632243, "zip": "10517", "place_name": "Crompond, NY 10517, USA"}, {"lat": 41.2652931, "lng": -73.6006342, "zip": "10518", "place_name": "Cross River, NY 10518, USA"}, {"lat": 41.3493258, "lng": -73.66171489999999, "zip": "10519", "place_name": "Croton Falls, NY 10519, USA"}, {"lat": 41.2025169, "lng": -73.88485279999999, "zip": "10520", "place_name": "Croton-On-Hudson, NY 10520, USA"}, {"lat": 41.2299999, "lng": -73.92, "zip": "10521", "place_name": "Croton-On-Hudson, NY 10521, USA"}, {"lat": 41.0102232, "lng": -73.8713099, "zip": "10522", "place_name": "Dobbs Ferry, NY 10522, USA"}, {"lat": 41.0722621, "lng": -73.8242621, "zip": "10523", "place_name": "Elmsford, NY 10523, USA"}, {"lat": 41.2951353, "lng": -73.67128009999999, "zip": "10526", "place_name": "Goldens Bridge, NY 10526, USA"}, {"lat": 41.3185482, "lng": -73.7654367, "zip": "10527", "place_name": "Granite Springs, NY 10527, USA"}, {"lat": 40.9783821, "lng": -73.7183639, "zip": "10528", "place_name": "Harrison, NY 10528, USA"}, {"lat": 41.0214474, "lng": -73.8124984, "zip": "10530", "place_name": "Hartsdale, NY 10530, USA"}, {"lat": 41.098333, "lng": -73.80073399999999, "zip": "10532", "place_name": "Hawthorne, NY 10532, USA"}, {"lat": 41.039714, "lng": -73.8713099, "zip": "10533", "place_name": "Irvington, NY 10533, USA"}, {"lat": 41.3344245, "lng": -73.7992634, "zip": "10535", "place_name": "Jefferson Valley, NY 10535, USA"}, {"lat": 41.296223, "lng": -73.712479, "zip": "10536", "place_name": "Katonah, NY 10536, USA"}, {"lat": 41.3383344, "lng": -73.88601, "zip": "10537", "place_name": "Lake Peekskill, NY 10537, USA"}, {"lat": 40.9342921, "lng": -73.7536695, "zip": "10538", "place_name": "Larchmont, NY 10538, USA"}, {"lat": 41.3251323, "lng": -73.7190608, "zip": "10540", "place_name": "Lincolndale, NY 10540, USA"}, {"lat": 40.9505752, "lng": -73.7301331, "zip": "10543", "place_name": "Mamaroneck, NY 10543, USA"}, {"lat": 41.1935292, "lng": -73.7977928, "zip": "10546", "place_name": "Millwood, NY 10546, USA"}, {"lat": 41.31085050000001, "lng": -73.8477874, "zip": "10547", "place_name": "Mohegan Lake, NY 10547, USA"}, {"lat": 41.23790109999999, "lng": -73.9536163, "zip": "10548", "place_name": "Montrose, NY 10548, USA"}, {"lat": 41.1983543, "lng": -73.712479, "zip": "10549", "place_name": "Mt Kisco, NY 10549, USA"}, {"lat": 40.9087956, "lng": -73.83308439999999, "zip": "10550", "place_name": "Mt Vernon, NY 10550, USA"}, {"lat": 40.9114605, "lng": -73.8338607, "zip": "10551", "place_name": "Mt Vernon, NY 10551, USA"}, {"lat": 40.9247625, "lng": -73.8242621, "zip": "10552", "place_name": "Mt Vernon, NY 10552, USA"}, {"lat": 40.9071072, "lng": -73.8213213, "zip": "10553", "place_name": "Mt Vernon, NY 10553, USA"}, {"lat": 41.3377373, "lng": -73.59474589999999, "zip": "10560", "place_name": "North Salem, NY 10560, USA"}, {"lat": 41.1795084, "lng": -73.8536683, "zip": "10562", "place_name": "Ossining, NY 10562, USA"}, {"lat": 41.2916113, "lng": -73.91834639999999, "zip": "10566", "place_name": "Peekskill, NY 10566, USA"}, {"lat": 41.2808277, "lng": -73.87719009999999, "zip": "10567", "place_name": "Cortlandt, NY 10567, USA"}, {"lat": 41.135887, "lng": -73.7889689, "zip": "10570", "place_name": "Pleasantville, NY 10570, USA"}, {"lat": 41.0125894, "lng": -73.6830521, "zip": "10573", "place_name": "Port Chester, NY 10573, USA"}, {"lat": 41.21696610000001, "lng": -73.5711912, "zip": "10576", "place_name": "Pound Ridge, NY 10576, USA"}, {"lat": 41.0373522, "lng": -73.7183639, "zip": "10577", "place_name": "Purchase, NY 10577, USA"}, {"lat": 41.3175574, "lng": -73.6742232, "zip": "10578", "place_name": "Purdys, NY 10578, USA"}, {"lat": 40.9749755, "lng": -73.69482339999999, "zip": "10580", "place_name": "Rye, NY 10580, USA"}, {"lat": 40.99263819999999, "lng": -73.78308609999999, "zip": "10583", "place_name": "Scarsdale, NY 10583, USA"}, {"lat": 41.3341901, "lng": -73.7366246, "zip": "10587", "place_name": "Shenorock, NY 10587, USA"}, {"lat": 41.32989300000001, "lng": -73.8272029, "zip": "10588", "place_name": "Shrub Oak, NY 10588, USA"}, {"lat": 41.3278772, "lng": -73.69482339999999, "zip": "10589", "place_name": "Somers, NY 10589, USA"}, {"lat": 41.2549589, "lng": -73.52996399999999, "zip": "10590", "place_name": "South Salem, NY 10590, USA"}, {"lat": 41.0813932, "lng": -73.8536683, "zip": "10591", "place_name": "Tarrytown, NY 10591, USA"}, {"lat": 41.1166, "lng": -73.7742616, "zip": "10594", "place_name": "Thornwood, NY 10594, USA"}, {"lat": 41.085128, "lng": -73.7772032, "zip": "10595", "place_name": "Valhalla, NY 10595, USA"}, {"lat": 41.2524164, "lng": -73.9609634, "zip": "10596", "place_name": "Verplanck, NY 10596, USA"}, {"lat": 41.2946261, "lng": -73.6006342, "zip": "10597", "place_name": "Waccabuc, NY 10597, USA"}, {"lat": 41.2868678, "lng": -73.78308609999999, "zip": "10598", "place_name": "Yorktown Heights, NY 10598, USA"}, {"lat": 41.0322939, "lng": -73.7683784, "zip": "10601", "place_name": "White Plains, NY 10601, USA"}, {"lat": 41.0556696, "lng": -73.7772032, "zip": "10603", "place_name": "White Plains, NY 10603, USA"}, {"lat": 41.0603977, "lng": -73.7419017, "zip": "10604", "place_name": "West Harrison, NY 10604, USA"}, {"lat": 41.0112762, "lng": -73.7419017, "zip": "10605", "place_name": "White Plains, NY 10605, USA"}, {"lat": 41.0233153, "lng": -73.7742616, "zip": "10606", "place_name": "White Plains, NY 10606, USA"}, {"lat": 41.0390683, "lng": -73.8154394, "zip": "10607", "place_name": "White Plains, NY 10607, USA"}, {"lat": 40.9413523, "lng": -73.8713099, "zip": "10701", "place_name": "Yonkers, NY 10701, USA"}, {"lat": 40.93, "lng": -73.89999999999999, "zip": "10702", "place_name": "Yonkers, NY 10702, USA"}, {"lat": 40.95984, "lng": -73.8801301, "zip": "10703", "place_name": "Yonkers, NY 10703, USA"}, {"lat": 40.9199758, "lng": -73.859549, "zip": "10704", "place_name": "Yonkers, NY 10704, USA"}, {"lat": 40.9180569, "lng": -73.8977693, "zip": "10705", "place_name": "Yonkers, NY 10705, USA"}, {"lat": 40.9905542, "lng": -73.8713099, "zip": "10706", "place_name": "Hastings-On-Hudson, NY 10706, USA"}, {"lat": 40.9606542, "lng": -73.8257325, "zip": "10707", "place_name": "Tuckahoe, NY 10707, USA"}, {"lat": 40.9383349, "lng": -73.83308439999999, "zip": "10708", "place_name": "Bronxville, NY 10708, USA"}, {"lat": 40.9546405, "lng": -73.8095574, "zip": "10709", "place_name": "Eastchester, NY 10709, USA"}, {"lat": 40.9675084, "lng": -73.8477874, "zip": "10710", "place_name": "Yonkers, NY 10710, USA"}, {"lat": 40.9196897, "lng": -73.7889689, "zip": "10801", "place_name": "New Rochelle, NY 10801, USA"}, {"lat": 40.9492193, "lng": -73.7889689, "zip": "10804", "place_name": "New Rochelle, NY 10804, USA"}, {"lat": 40.8971093, "lng": -73.7860276, "zip": "10805", "place_name": "New Rochelle, NY 10805, USA"}, {"lat": 41.1876338, "lng": -74.0828839, "zip": "10970", "place_name": "Pomona, NY 10970, USA"}, {"lat": 41.143633, "lng": -74.1885825, "zip": "10974", "place_name": "Sloatsburg, NY 10974, USA"}, {"lat": 41.029058, "lng": -73.9256948, "zip": "10976", "place_name": "Sparkill, NY 10976, USA"}, {"lat": 41.1139452, "lng": -74.04763779999999, "zip": "10977", "place_name": "Spring Valley, NY 10977, USA"}, {"lat": 41.1108401, "lng": -74.09764299999999, "zip": "10982", "place_name": "Tallman, NY 10982, USA"}, {"lat": 41.0289331, "lng": -73.9506774, "zip": "10983", "place_name": "Tappan, NY 10983, USA"}, {"lat": 41.2099325, "lng": -74.0153231, "zip": "10984", "place_name": "Thiells, NY 10984, USA"}, {"lat": 41.2780355, "lng": -73.99475629999999, "zip": "10986", "place_name": "Tomkins Cove, NY 10986, USA"}, {"lat": 41.1266886, "lng": -73.9301037, "zip": "10989", "place_name": "Valley Cottage, NY 10989, USA"}, {"lat": 41.212212, "lng": -73.96243270000001, "zip": "10993", "place_name": "West Haverstraw, NY 10993, USA"}, {"lat": 41.09411619999999, "lng": -73.977126, "zip": "10994", "place_name": "West Nyack, NY 10994, USA"}, {"lat": 41.1411152, "lng": -74.1357407, "zip": "10901", "place_name": "Suffern, NY 10901, USA"}, {"lat": 41.0711228, "lng": -73.9536163, "zip": "10913", "place_name": "Blauvelt, NY 10913, USA"}, {"lat": 41.1561247, "lng": -73.9301037, "zip": "10920", "place_name": "Congers, NY 10920, USA"}, {"lat": 41.2025267, "lng": -73.9976946, "zip": "10923", "place_name": "Garnerville, NY 10923, USA"}, {"lat": 41.1929636, "lng": -73.94773839999999, "zip": "10927", "place_name": "Haverstraw, NY 10927, USA"}, {"lat": 41.1186497, "lng": -74.16803469999999, "zip": "10931", "place_name": "Hillburn, NY 10931, USA"}, {"lat": 41.1091091, "lng": -74.0828839, "zip": "10952", "place_name": "Monsey, NY 10952, USA"}, {"lat": 41.09912629999999, "lng": -74.0123851, "zip": "10954", "place_name": "Nanuet, NY 10954, USA"}, {"lat": 41.1604286, "lng": -73.99475629999999, "zip": "10956", "place_name": "New City, NY 10956, USA"}, {"lat": 41.0938791, "lng": -73.9065883, "zip": "10960", "place_name": "Nyack, NY 10960, USA"}, {"lat": 41.0481178, "lng": -73.9301037, "zip": "10962", "place_name": "Orangeburg, NY 10962, USA"}, {"lat": 41.0152689, "lng": -73.9065883, "zip": "10964", "place_name": "Palisades, NY 10964, USA"}, {"lat": 41.0598251, "lng": -74.0123851, "zip": "10965", "place_name": "Pearl River, NY 10965, USA"}, {"lat": 41.04356300000001, "lng": -73.9154069, "zip": "10968", "place_name": "Piermont, NY 10968, USA"}, {"lat": 41.3861778, "lng": -74.48773059999999, "zip": "10973", "place_name": "Slate Hill, NY 10973, USA"}, {"lat": 41.239215, "lng": -74.1357407, "zip": "10975", "place_name": "Southfields, NY 10975, USA"}, {"lat": 41.1823561, "lng": -74.31970419999999, "zip": "10979", "place_name": "Sterling Forest, NY 10979, USA"}, {"lat": 41.3219752, "lng": -74.28532469999999, "zip": "10981", "place_name": "Sugar Loaf, NY 10981, USA"}, {"lat": 41.57062270000001, "lng": -74.35581479999999, "zip": "10985", "place_name": "Thompson Ridge, NY 10985, USA"}, {"lat": 41.2050167, "lng": -74.24140919999999, "zip": "10987", "place_name": "Tuxedo Park, NY 10987, USA"}, {"lat": 41.302158, "lng": -74.56243909999999, "zip": "10988", "place_name": "Unionville, NY 10988, USA"}, {"lat": 41.2564266, "lng": -74.3597872, "zip": "10990", "place_name": "Warwick, NY 10990, USA"}, {"lat": 41.3662803, "lng": -74.6283316, "zip": "12771", "place_name": "Port Jervis, NY 12771, USA"}, {"lat": 41.4243859, "lng": -74.16509909999999, "zip": "10992", "place_name": "Washingtonville, NY 10992, USA"}, {"lat": 41.39205, "lng": -73.9712488, "zip": "10996", "place_name": "West Point, NY 10996, USA"}, {"lat": 41.3338698, "lng": -74.5346103, "zip": "10998", "place_name": "Westtown, NY 10998, USA"}, {"lat": 41.4377501, "lng": -74.72200169999999, "zip": "12780", "place_name": "Sparrow Bush, NY 12780, USA"}, {"lat": 41.5118599, "lng": -74.55756889999999, "zip": "12785", "place_name": "Westbrookville, NY 12785, USA"}, {"lat": 41.4020757, "lng": -74.0417628, "zip": "12518", "place_name": "Cornwall, NY 12518, USA"}, {"lat": 41.43041789999999, "lng": -74.00063279999999, "zip": "12520", "place_name": "Cornwall-On-Hudson, NY 12520, USA"}, {"lat": 41.6099227, "lng": -73.99475629999999, "zip": "12542", "place_name": "Marlboro, NY 12542, USA"}, {"lat": 41.4875473, "lng": -74.21499779999999, "zip": "12543", "place_name": "Maybrook, NY 12543, USA"}, {"lat": 41.5180848, "lng": -74.24140919999999, "zip": "12549", "place_name": "Montgomery, NY 12549, USA"}, {"lat": 41.5306113, "lng": -74.05351259999999, "zip": "12550", "place_name": "Newburgh, NY 12550, USA"}, {"lat": 41.44780009999999, "lng": -74.0887576, "zip": "12553", "place_name": "New Windsor, NY 12553, USA"}, {"lat": 41.636776, "lng": -74.3235539, "zip": "12566", "place_name": "Pine Bush, NY 12566, USA"}, {"lat": 41.47726919999999, "lng": -74.1592278, "zip": "12575", "place_name": "Rock Tavern, NY 12575, USA"}, {"lat": 41.425507, "lng": -74.1210597, "zip": "12577", "place_name": "Salisbury Mills, NY 12577, USA"}, {"lat": 41.4224203, "lng": -74.2032581, "zip": "10914", "place_name": "Blooming Grove, NY 10914, USA"}, {"lat": 41.5416599, "lng": -74.36081260000002, "zip": "10915", "place_name": "Bullville, NY 10915, USA"}, {"lat": 41.558605, "lng": -74.1827119, "zip": "12586", "place_name": "Walden, NY 12586, USA"}, {"lat": 41.4399817, "lng": -74.24140919999999, "zip": "10916", "place_name": "Campbell Hall, NY 10916, USA"}, {"lat": 41.3281101, "lng": -74.1063776, "zip": "10917", "place_name": "Central Valley, NY 10917, USA"}, {"lat": 41.61375100000001, "lng": -74.1592278, "zip": "12589", "place_name": "Wallkill, NY 12589, USA"}, {"lat": 41.353627, "lng": -74.2531465, "zip": "10918", "place_name": "Chester, NY 10918, USA"}, {"lat": 41.5320197, "lng": -74.3763415, "zip": "10919", "place_name": "Circleville, NY 10919, USA"}, {"lat": 41.3275569, "lng": -74.347017, "zip": "10921", "place_name": "Florida, NY 10921, USA"}, {"lat": 41.33877409999999, "lng": -73.9918181, "zip": "10922", "place_name": "Fort Montgomery, NY 10922, USA"}, {"lat": 41.3862816, "lng": -74.347017, "zip": "10924", "place_name": "Goshen, NY 10924, USA"}, {"lat": 41.2033956, "lng": -74.3000878, "zip": "10925", "place_name": "Greenwood Lake, NY 10925, USA"}, {"lat": 41.3076175, "lng": -74.0652616, "zip": "10926", "place_name": "Harriman, NY 10926, USA"}, {"lat": 41.3400881, "lng": -74.018261, "zip": "10928", "place_name": "Highland Falls, NY 10928, USA"}, {"lat": 41.3533968, "lng": -74.1122506, "zip": "10930", "place_name": "Highland Mills, NY 10930, USA"}, {"lat": 41.5750954, "lng": -74.4408385, "zip": "12721", "place_name": "Bloomingburg, NY 12721, USA"}, {"lat": 41.4806809, "lng": -74.4678946, "zip": "10932", "place_name": "Howells, NY 10932, USA"}, {"lat": 41.3663556, "lng": -74.512637, "zip": "10933", "place_name": "Johnson, NY 10933, USA"}, {"lat": 41.4334745, "lng": -74.4760088, "zip": "10940", "place_name": "Middletown, NY 10940, USA"}, {"lat": 41.49215179999999, "lng": -74.3352858, "zip": "10941", "place_name": "Middletown, NY 10941, USA"}, {"lat": 41.33, "lng": -74.19, "zip": "10949", "place_name": "Monroe, NY 10949, USA"}, {"lat": 41.4670284, "lng": -74.5934145, "zip": "12729", "place_name": "Cuddebackville, NY 12729, USA"}, {"lat": 41.3078975, "lng": -74.2061931, "zip": "10950", "place_name": "Monroe, NY 10950, USA"}, {"lat": 41.389303, "lng": -74.09389689999999, "zip": "10953", "place_name": "Mountainville, NY 10953, USA"}, {"lat": 41.3740086, "lng": -74.4349761, "zip": "10958", "place_name": "New Hampton, NY 10958, USA"}, {"lat": 41.4667793, "lng": -74.54046939999999, "zip": "10963", "place_name": "Otisville, NY 10963, USA"}, {"lat": 41.4705169, "lng": -74.6751731, "zip": "12746", "place_name": "Huguenot, NY 12746, USA"}, {"lat": 41.2882264, "lng": -74.48773059999999, "zip": "10969", "place_name": "Pine Island, NY 10969, USA"}, {"lat": 41.4238545, "lng": -73.5829689, "zip": "10509", "place_name": "Brewster, NY 10509, USA"}, {"lat": 41.483411, "lng": -73.7242486, "zip": "10512", "place_name": "Carmel, NY 10512, USA"}, {"lat": 41.4647713, "lng": -73.86542949999999, "zip": "10516", "place_name": "Cold Spring, NY 10516, USA"}, {"lat": 41.5098312, "lng": -73.5711912, "zip": "12563", "place_name": "Patterson, NY 12563, USA"}, {"lat": 41.3657962, "lng": -73.9242251, "zip": "10524", "place_name": "Garrison, NY 10524, USA"}, {"lat": 41.4007342, "lng": -73.7595532, "zip": "10541", "place_name": "Mahopac, NY 10541, USA"}, {"lat": 41.37161440000001, "lng": -73.7628627, "zip": "10542", "place_name": "Mahopac Falls, NY 10542, USA"}, {"lat": 41.3913836, "lng": -73.8301437, "zip": "10579", "place_name": "Putnam Valley, NY 10579, USA"}, {"lat": 40.7989068, "lng": -74.1885825, "zip": "07003", "place_name": "Bloomfield, NJ 07003, USA"}, {"lat": 40.8844007, "lng": -74.30595459999999, "zip": "07004", "place_name": "Fairfield, NJ 07004, USA"}, {"lat": 40.8515243, "lng": -74.2824862, "zip": "07006", "place_name": "Caldwell, NJ 07006, USA"}, {"lat": 40.8589645, "lng": -74.22967129999999, "zip": "07009", "place_name": "Cedar Grove, NJ 07009, USA"}, {"lat": 40.77254850000001, "lng": -74.21206289999999, "zip": "07017", "place_name": "East Orange, NJ 07017, USA"}, {"lat": 40.7564795, "lng": -74.2208673, "zip": "07018", "place_name": "East Orange, NJ 07018, USA"}, {"lat": 40.8288978, "lng": -74.2795524, "zip": "07021", "place_name": "Essex Fells, NJ 07021, USA"}, {"lat": 40.8034312, "lng": -74.2032581, "zip": "07028", "place_name": "Glen Ridge, NJ 07028, USA"}, {"lat": 40.9238588, "lng": -74.30595459999999, "zip": "07035", "place_name": "Lincoln Park, NJ 07035, USA"}, {"lat": 40.7930239, "lng": -74.3235539, "zip": "07039", "place_name": "Livingston, NJ 07039, USA"}, {"lat": 40.7312956, "lng": -74.2707509, "zip": "07040", "place_name": "Maplewood, NJ 07040, USA"}, {"lat": 40.727549, "lng": -74.2971543, "zip": "07041", "place_name": "Millburn, NJ 07041, USA"}, {"lat": 40.821948, "lng": -74.21206289999999, "zip": "07042", "place_name": "Montclair, NJ 07042, USA"}, {"lat": 40.8400532, "lng": -74.20032309999999, "zip": "07043", "place_name": "Montclair, NJ 07043, USA"}, {"lat": 40.836743, "lng": -74.2472779, "zip": "07044", "place_name": "Verona, NJ 07044, USA"}, {"lat": 40.7680056, "lng": -74.2326058, "zip": "07050", "place_name": "City of Orange, NJ 07050, USA"}, {"lat": 40.8029914, "lng": -74.2531465, "zip": "07052", "place_name": "West Orange, NJ 07052, USA"}, {"lat": 40.8267932, "lng": -74.3176876, "zip": "07068", "place_name": "Roseland, NJ 07068, USA"}, {"lat": 40.73945, "lng": -74.32941989999999, "zip": "07078", "place_name": "Short Hills, NJ 07078, USA"}, {"lat": 40.749443, "lng": -74.2590148, "zip": "07079", "place_name": "South Orange, NJ 07079, USA"}, {"lat": 40.73053729999999, "lng": -74.1730762, "zip": "07101", "place_name": "Newark, NJ 07101, USA"}, {"lat": 40.7350747, "lng": -74.17390569999999, "zip": "07102", "place_name": "Newark, NJ 07102, USA"}, {"lat": 40.7383636, "lng": -74.197388, "zip": "07103", "place_name": "Newark, NJ 07103, USA"}, {"lat": 40.7758541, "lng": -74.16509909999999, "zip": "07104", "place_name": "Newark, NJ 07104, USA"}, {"lat": 40.7231264, "lng": -74.1416127, "zip": "07105", "place_name": "Newark, NJ 07105, USA"}, {"lat": 40.7432865, "lng": -74.2326058, "zip": "07106", "place_name": "Newark, NJ 07106, USA"}, {"lat": 40.7663804, "lng": -74.18564719999999, "zip": "07107", "place_name": "Newark, NJ 07107, USA"}, {"lat": 40.7235275, "lng": -74.197388, "zip": "07108", "place_name": "Newark, NJ 07108, USA"}, {"lat": 40.7956149, "lng": -74.16509909999999, "zip": "07109", "place_name": "Belleville, NJ 07109, USA"}, {"lat": 40.8235952, "lng": -74.1533563, "zip": "07110", "place_name": "Nutley, NJ 07110, USA"}, {"lat": 40.716493, "lng": -74.23554039999999, "zip": "07111", "place_name": "Irvington, NJ 07111, USA"}, {"lat": 40.7132136, "lng": -74.21206289999999, "zip": "07112", "place_name": "Newark, NJ 07112, USA"}, {"lat": 40.6967435, "lng": -74.16509909999999, "zip": "07114", "place_name": "Newark, NJ 07114, USA"}, {"lat": 40.73999999999999, "lng": -74.17, "zip": "07199", "place_name": "Newark, NJ 07199, USA"}, {"lat": 41.062513, "lng": -74.1357407, "zip": "07446", "place_name": "Ramsey, NJ 07446, USA"}, {"lat": 40.9845896, "lng": -74.1063776, "zip": "07450", "place_name": "Ridgewood, NJ 07450, USA"}, {"lat": 40.9799999, "lng": -74.11999999999999, "zip": "07451", "place_name": "Ridgewood, NJ 07451, USA"}, {"lat": 40.9583569, "lng": -74.12986839999999, "zip": "07452", "place_name": "Glen Rock, NJ 07452, USA"}, {"lat": 41.0419694, "lng": -74.0946311, "zip": "07458", "place_name": "Saddle River, NJ 07458, USA"}, {"lat": 41.0145518, "lng": -74.1269322, "zip": "07463", "place_name": "Waldwick, NJ 07463, USA"}, {"lat": 41.0026959, "lng": -74.16509909999999, "zip": "07481", "place_name": "Wyckoff, NJ 07481, USA"}, {"lat": 40.8876273, "lng": -74.04763779999999, "zip": "07601", "place_name": "Hackensack, NJ 07601, USA"}, {"lat": 40.8773217, "lng": -74.0270745, "zip": "07603", "place_name": "Bogota, NJ 07603, USA"}, {"lat": 40.8642433, "lng": -74.07407289999999, "zip": "07604", "place_name": "Hasbrouck Heights, NJ 07604, USA"}, {"lat": 40.8624613, "lng": -73.9918181, "zip": "07605", "place_name": "Leonia, NJ 07605, USA"}, {"lat": 40.859067, "lng": -74.04616899999999, "zip": "07606", "place_name": "South Hackensack, NJ 07606, USA"}, {"lat": 40.9020267, "lng": -74.0623244, "zip": "07607", "place_name": "Maywood, NJ 07607, USA"}, {"lat": 40.85271900000001, "lng": -74.0623244, "zip": "07608", "place_name": "Teterboro, NJ 07608, USA"}, {"lat": 40.93702529999999, "lng": -73.9271644, "zip": "07620", "place_name": "Alpine, NJ 07620, USA"}, {"lat": 40.9203906, "lng": -74.00063279999999, "zip": "07621", "place_name": "Bergenfield, NJ 07621, USA"}, {"lat": 40.9694387, "lng": -73.9301037, "zip": "07624", "place_name": "Closter, NJ 07624, USA"}, {"lat": 40.9412128, "lng": -73.9565551, "zip": "07626", "place_name": "Cresskill, NJ 07626, USA"}, {"lat": 40.9531023, "lng": -73.9536163, "zip": "07627", "place_name": "Demarest, NJ 07627, USA"}, {"lat": 40.948271, "lng": -73.9888797, "zip": "07628", "place_name": "Dumont, NJ 07628, USA"}, {"lat": 40.9750092, "lng": -74.0211989, "zip": "07630", "place_name": "Emerson, NJ 07630, USA"}, {"lat": 40.8874882, "lng": -73.977126, "zip": "07631", "place_name": "Englewood, NJ 07631, USA"}, {"lat": 40.8923269, "lng": -73.9418603, "zip": "07632", "place_name": "Englewood Cliffs, NJ 07632, USA"}, {"lat": 40.9958149, "lng": -73.977126, "zip": "07640", "place_name": "Harrington Park, NJ 07640, USA"}, {"lat": 40.9618304, "lng": -73.9976946, "zip": "07641", "place_name": "Haworth, NJ 07641, USA"}, {"lat": 41.0078617, "lng": -74.0447003, "zip": "07642", "place_name": "Hillsdale, NJ 07642, USA"}, {"lat": 40.846514, "lng": -74.0358876, "zip": "07643", "place_name": "Little Ferry, NJ 07643, USA"}, {"lat": 40.8798669, "lng": -74.0799469, "zip": "07644", "place_name": "Lodi, NJ 07644, USA"}, {"lat": 41.054992, "lng": -74.04763779999999, "zip": "07645", "place_name": "Montvale, NJ 07645, USA"}, {"lat": 40.9356215, "lng": -74.0211989, "zip": "07646", "place_name": "New Milford, NJ 07646, USA"}, {"lat": 41.0084281, "lng": -73.9447994, "zip": "07647", "place_name": "Northvale, NJ 07647, USA"}, {"lat": 40.9924695, "lng": -73.9536163, "zip": "07648", "place_name": "Norwood, NJ 07648, USA"}, {"lat": 40.9528921, "lng": -74.03882519999999, "zip": "07649", "place_name": "Oradell, NJ 07649, USA"}, {"lat": 40.8485005, "lng": -73.9976946, "zip": "07650", "place_name": "Palisades Park, NJ 07650, USA"}, {"lat": 40.9541697, "lng": -74.0652616, "zip": "07652", "place_name": "Paramus, NJ 07652, USA"}, {"lat": 41.03737, "lng": -74.0447003, "zip": "07656", "place_name": "Park Ridge, NJ 07656, USA"}, {"lat": 40.8333184, "lng": -74.0123851, "zip": "07657", "place_name": "Ridgefield, NJ 07657, USA"}, {"lat": 40.851833, "lng": -74.0211989, "zip": "07660", "place_name": "Ridgefield Park, NJ 07660, USA"}, {"lat": 40.9282671, "lng": -74.03882519999999, "zip": "07661", "place_name": "River Edge, NJ 07661, USA"}, {"lat": 40.9094443, "lng": -74.0799469, "zip": "07662", "place_name": "Rochelle Park, NJ 07662, USA"}, {"lat": 40.90412329999999, "lng": -74.0946311, "zip": "07663", "place_name": "Saddle Brook, NJ 07663, USA"}, {"lat": 40.8924932, "lng": -74.0123851, "zip": "07666", "place_name": "Teaneck, NJ 07666, USA"}, {"lat": 40.913708, "lng": -73.9536163, "zip": "07670", "place_name": "Tenafly, NJ 07670, USA"}, {"lat": 41.0229118, "lng": -73.99475629999999, "zip": "07675", "place_name": "Westwood, NJ 07675, USA"}, {"lat": 40.9877985, "lng": -74.0593872, "zip": "07676", "place_name": "Township of Washington, NJ 07676, USA"}, {"lat": 41.01731849999999, "lng": -74.0593872, "zip": "07677", "place_name": "Woodcliff Lake, NJ 07677, USA"}, {"lat": 40.822166, "lng": -73.9859414, "zip": "07010", "place_name": "Cliffside Park, NJ 07010, USA"}, {"lat": 40.8197331, "lng": -74.0035709, "zip": "07022", "place_name": "Fairview, NJ 07022, USA"}, {"lat": 40.8562383, "lng": -73.96537150000002, "zip": "07024", "place_name": "Fort Lee, NJ 07024, USA"}, {"lat": 40.8761974, "lng": -74.1063776, "zip": "07026", "place_name": "Garfield, NJ 07026, USA"}, {"lat": 40.7906667, "lng": -74.12986839999999, "zip": "07031", "place_name": "North Arlington, NJ 07031, USA"}, {"lat": 40.8535873, "lng": -74.103441, "zip": "07057", "place_name": "Wallington, NJ 07057, USA"}, {"lat": 40.8248063, "lng": -74.10931409999999, "zip": "07070", "place_name": "Rutherford, NJ 07070, USA"}, {"lat": 40.7972384, "lng": -74.1063776, "zip": "07071", "place_name": "Lyndhurst, NJ 07071, USA"}, {"lat": 40.8202314, "lng": -74.0593872, "zip": "07072", "place_name": "Carlstadt, NJ 07072, USA"}, {"lat": 40.8136765, "lng": -74.0828839, "zip": "07073", "place_name": "East Rutherford, NJ 07073, USA"}, {"lat": 40.8362579, "lng": -74.0505752, "zip": "07074", "place_name": "Moonachie, NJ 07074, USA"}, {"lat": 40.8519315, "lng": -74.0916944, "zip": "07075", "place_name": "Wood-Ridge, NJ 07075, USA"}, {"lat": 41.037101, "lng": -74.12986839999999, "zip": "07401", "place_name": "Allendale, NJ 07401, USA"}, {"lat": 40.9074337, "lng": -74.1181234, "zip": "07407", "place_name": "Elmwood Park, NJ 07407, USA"}, {"lat": 40.9370006, "lng": -74.1181234, "zip": "07410", "place_name": "Fair Lawn, NJ 07410, USA"}, {"lat": 41.0133808, "lng": -74.2061931, "zip": "07417", "place_name": "Franklin Lakes, NJ 07417, USA"}, {"lat": 41.0005726, "lng": -74.0975678, "zip": "07423", "place_name": "Ho-Ho-Kus, NJ 07423, USA"}, {"lat": 41.0887754, "lng": -74.1827119, "zip": "07430", "place_name": "Mahwah, NJ 07430, USA"}, {"lat": 40.9965212, "lng": -74.1386767, "zip": "07432", "place_name": "Midland Park, NJ 07432, USA"}, {"lat": 41.0322496, "lng": -74.23554039999999, "zip": "07436", "place_name": "Oakland, NJ 07436, USA"}, {"lat": 40.7445526, "lng": -74.1533563, "zip": "07029", "place_name": "Harrison, NJ 07029, USA"}, {"lat": 40.744052, "lng": -74.0270745, "zip": "07030", "place_name": "Hoboken, NJ 07030, USA"}, {"lat": 40.7593718, "lng": -74.1181234, "zip": "07032", "place_name": "Kearny, NJ 07032, USA"}, {"lat": 40.8053731, "lng": -74.0241367, "zip": "07047", "place_name": "North Bergen, NJ 07047, USA"}, {"lat": 40.7629831, "lng": -74.0211989, "zip": "07086", "place_name": "Weehawken, NJ 07086, USA"}, {"lat": 40.773694, "lng": -74.0270745, "zip": "07087", "place_name": "Union City, NJ 07087, USA"}, {"lat": 40.7860123, "lng": -74.0094471, "zip": "07093", "place_name": "West New York, NJ 07093, USA"}, {"lat": 40.7548065, "lng": -74.06819879999999, "zip": "07097", "place_name": "Jersey City, NJ 07097, USA"}, {"lat": 40.7218318, "lng": -74.0447003, "zip": "07302", "place_name": "Jersey City, NJ 07302, USA"}, {"lat": 40.7160913, "lng": -74.07407289999999, "zip": "07304", "place_name": "Jersey City, NJ 07304, USA"}, {"lat": 40.7008528, "lng": -74.0887576, "zip": "07305", "place_name": "Jersey City, NJ 07305, USA"}, {"lat": 40.7329808, "lng": -74.0711359, "zip": "07306", "place_name": "Jersey City, NJ 07306, USA"}, {"lat": 40.7473758, "lng": -74.0505752, "zip": "07307", "place_name": "Jersey City, NJ 07307, USA"}, {"lat": 40.658801, "lng": -74.1063776, "zip": "07002", "place_name": "Bayonne, NJ 07002, USA"}, {"lat": 40.7300567, "lng": -74.03294989999999, "zip": "07310", "place_name": "Jersey City, NJ 07310, USA"}, {"lat": 40.7167878, "lng": -74.0374081, "zip": "07311", "place_name": "Jersey City, NJ 07311, USA"}, {"lat": 40.7299999, "lng": -74.08, "zip": "07399", "place_name": "Jersey City, NJ 07399, USA"}, {"lat": 41.0022968, "lng": -74.2854199, "zip": "07442", "place_name": "Pompton Lakes, NJ 07442, USA"}, {"lat": 41.0937181, "lng": -74.2883536, "zip": "07456", "place_name": "Ringwood, NJ 07456, USA"}, {"lat": 41.08680140000001, "lng": -74.5228916, "zip": "07460", "place_name": "Stockholm, NJ 07460, USA"}, {"lat": 41.0601152, "lng": -74.29422079999999, "zip": "07465", "place_name": "Wanaque, NJ 07465, USA"}, {"lat": 40.9411487, "lng": -74.2531465, "zip": "07470", "place_name": "Wayne, NJ 07470, USA"}, {"lat": 41.0985461, "lng": -74.3939339, "zip": "07480", "place_name": "West Milford, NJ 07480, USA"}, {"lat": 40.9111613, "lng": -74.1621634, "zip": "07501", "place_name": "Paterson, NJ 07501, USA"}, {"lat": 40.920208, "lng": -74.19151769999999, "zip": "07502", "place_name": "Paterson, NJ 07502, USA"}, {"lat": 40.8955467, "lng": -74.156292, "zip": "07503", "place_name": "Paterson, NJ 07503, USA"}, {"lat": 40.9127904, "lng": -74.1386767, "zip": "07504", "place_name": "Paterson, NJ 07504, USA"}, {"lat": 40.9163004, "lng": -74.172438, "zip": "07505", "place_name": "Paterson, NJ 07505, USA"}, {"lat": 40.9616599, "lng": -74.1533563, "zip": "07506", "place_name": "Hawthorne, NJ 07506, USA"}, {"lat": 40.9489923, "lng": -74.15354479999999, "zip": "07507", "place_name": "Hawthorne, NJ 07507, USA"}, {"lat": 40.9567531, "lng": -74.1885825, "zip": "07508", "place_name": "Haledon, NJ 07508, USA"}, {"lat": 40.9147489, "lng": -74.1686005, "zip": "07510", "place_name": "Paterson, NJ 07510, USA"}, {"lat": 40.9099999, "lng": -74.2099999, "zip": "07511", "place_name": "Totowa, NJ 07511, USA"}, {"lat": 40.9025415, "lng": -74.22380199999999, "zip": "07512", "place_name": "Totowa, NJ 07512, USA"}, {"lat": 40.9045824, "lng": -74.1504204, "zip": "07513", "place_name": "Paterson, NJ 07513, USA"}, {"lat": 40.923473, "lng": -74.1445487, "zip": "07514", "place_name": "Paterson, NJ 07514, USA"}, {"lat": 40.9234909, "lng": -74.1797766, "zip": "07522", "place_name": "Paterson, NJ 07522, USA"}, {"lat": 40.9300511, "lng": -74.156292, "zip": "07524", "place_name": "Paterson, NJ 07524, USA"}, {"lat": 40.9099999, "lng": -74.14999999999999, "zip": "07543", "place_name": "Paterson, NJ 07543, USA"}, {"lat": 40.8811561, "lng": -74.1416127, "zip": "07011", "place_name": "Clifton, NJ 07011, USA"}, {"lat": 40.843339, "lng": -74.1533563, "zip": "07012", "place_name": "Clifton, NJ 07012, USA"}, {"lat": 40.8663719, "lng": -74.1768412, "zip": "07013", "place_name": "Clifton, NJ 07013, USA"}, {"lat": 40.830167, "lng": -74.12986839999999, "zip": "07014", "place_name": "Clifton, NJ 07014, USA"}, {"lat": 40.8597746, "lng": -74.12986839999999, "zip": "07055", "place_name": "Passaic, NJ 07055, USA"}, {"lat": 41.0256479, "lng": -74.32941989999999, "zip": "07403", "place_name": "Bloomingdale, NJ 07403, USA"}, {"lat": 41.0305956, "lng": -74.29422079999999, "zip": "07420", "place_name": "Haskell, NJ 07420, USA"}, {"lat": 41.1739123, "lng": -74.370477, "zip": "07421", "place_name": "Hewitt, NJ 07421, USA"}, {"lat": 40.8811718, "lng": -74.21206289999999, "zip": "07424", "place_name": "Little Falls, NJ 07424, USA"}, {"lat": 41.0501044, "lng": -74.4349761, "zip": "07435", "place_name": "Newfoundland, NJ 07435, USA"}, {"lat": 41.0400935, "lng": -74.505312, "zip": "07438", "place_name": "Oak Ridge, NJ 07438, USA"}, {"lat": 40.9448178, "lng": -74.2971543, "zip": "07440", "place_name": "Pequannock Township, NJ 07440, USA"}, {"lat": 40.9632898, "lng": -74.30595459999999, "zip": "07444", "place_name": "Pompton Plains, NJ 07444, USA"}, {"lat": 40.9944769, "lng": -74.3176876, "zip": "07457", "place_name": "Riverdale, NJ 07457, USA"}, {"lat": 40.9245036, "lng": -74.41738769999999, "zip": "07005", "place_name": "Boonton, NJ 07005, USA"}, {"lat": 40.8822334, "lng": -74.3792737, "zip": "07034", "place_name": "Lake Hiawatha, NJ 07034, USA"}, {"lat": 40.9479587, "lng": -74.5521869, "zip": "07801", "place_name": "Dover, NJ 07801, USA"}, {"lat": 40.87825489999999, "lng": -74.6019776, "zip": "07803", "place_name": "Mine Hill Township, NJ 07803, USA"}, {"lat": 40.89, "lng": -74.58, "zip": "07806", "place_name": "Picatinny Arsenal, NJ 07806, USA"}, {"lat": 40.91389789999999, "lng": -74.3763415, "zip": "07045", "place_name": "Montville, NJ 07045, USA"}, {"lat": 40.8923936, "lng": -74.4349761, "zip": "07046", "place_name": "Mountain Lakes, NJ 07046, USA"}, {"lat": 40.890298, "lng": -74.74541119999999, "zip": "07828", "place_name": "Budd Lake, NJ 07828, USA"}, {"lat": 40.7383, "lng": -74.7922202, "zip": "07830", "place_name": "Califon, NJ 07830, USA"}, {"lat": 40.8620476, "lng": -74.3939339, "zip": "07054", "place_name": "Parsippany, NJ 07054, USA"}, {"lat": 40.8625518, "lng": -74.3440842, "zip": "07058", "place_name": "Pine Brook, NJ 07058, USA"}, {"lat": 40.8889758, "lng": -74.4818698, "zip": "07834", "place_name": "Denville, NJ 07834, USA"}, {"lat": 40.8501711, "lng": -74.70444250000001, "zip": "07836", "place_name": "Flanders, NJ 07836, USA"}, {"lat": 40.8550327, "lng": -74.8507131, "zip": "07840", "place_name": "Hackettstown, NJ 07840, USA"}, {"lat": 40.9472967, "lng": -74.494507, "zip": "07842", "place_name": "Hibernia, NJ 07842, USA"}, {"lat": 40.822003, "lng": -74.626401, "zip": "07845", "place_name": "Ironia, NJ 07845, USA"}, {"lat": 40.8884546, "lng": -74.6224755, "zip": "07847", "place_name": "Kenvil, NJ 07847, USA"}, {"lat": 40.9906067, "lng": -74.5756196, "zip": "07849", "place_name": "Lake Hopatcong, NJ 07849, USA"}, {"lat": 40.9046961, "lng": -74.6693186, "zip": "07850", "place_name": "Landing, NJ 07850, USA"}, {"lat": 40.8833526, "lng": -74.6576091, "zip": "07852", "place_name": "Ledgewood, NJ 07852, USA"}, {"lat": 40.7779169, "lng": -74.7922202, "zip": "07853", "place_name": "Long Valley, NJ 07853, USA"}, {"lat": 40.929542, "lng": -74.6341875, "zip": "07856", "place_name": "Mt Arlington, NJ 07856, USA"}, {"lat": 40.8967137, "lng": -74.7015158, "zip": "07857", "place_name": "Netcong, NJ 07857, USA"}, {"lat": 40.934492, "lng": -74.347017, "zip": "07082", "place_name": "Towaco, NJ 07082, USA"}, {"lat": 40.930976, "lng": -74.519706, "zip": "07866", "place_name": "Rockaway, NJ 07866, USA"}, {"lat": 40.8482888, "lng": -74.5814773, "zip": "07869", "place_name": "Randolph, NJ 07869, USA"}, {"lat": 40.8537087, "lng": -74.6576091, "zip": "07876", "place_name": "Succasunna, NJ 07876, USA"}, {"lat": 40.8698579, "lng": -74.4774741, "zip": "07878", "place_name": "Tabor, NJ 07878, USA"}, {"lat": 40.8932251, "lng": -74.5812124, "zip": "07885", "place_name": "Wharton, NJ 07885, USA"}, {"lat": 40.6867556, "lng": -74.5580454, "zip": "07920", "place_name": "Basking Ridge, NJ 07920, USA"}, {"lat": 40.7953905, "lng": -74.5662835, "zip": "07926", "place_name": "Brookside, NJ 07926, USA"}, {"lat": 40.8236134, "lng": -74.4554936, "zip": "07927", "place_name": "Cedar Knolls, NJ 07927, USA"}, {"lat": 40.7211189, "lng": -74.41152459999999, "zip": "07928", "place_name": "Chatham Township, NJ 07928, USA"}, {"lat": 40.7850853, "lng": -74.69858909999999, "zip": "07930", "place_name": "Chester, NJ 07930, USA"}, {"lat": 40.7036716, "lng": -74.6458987, "zip": "07931", "place_name": "Far Hills, NJ 07931, USA"}, {"lat": 40.7772437, "lng": -74.38806989999999, "zip": "07932", "place_name": "Florham Park, NJ 07932, USA"}, {"lat": 40.69948369999999, "lng": -74.4701475, "zip": "07933", "place_name": "Gillette, NJ 07933, USA"}, {"lat": 40.7457606, "lng": -74.4467007, "zip": "07935", "place_name": "Green Village, NJ 07935, USA"}, {"lat": 40.8135401, "lng": -74.3646122, "zip": "07936", "place_name": "East Hanover, NJ 07936, USA"}, {"lat": 40.7623187, "lng": -74.4232507, "zip": "07940", "place_name": "Madison, NJ 07940, USA"}, {"lat": 40.7723679, "lng": -74.6049061, "zip": "07945", "place_name": "Mendham, NJ 07945, USA"}, {"lat": 40.6662818, "lng": -74.51703189999999, "zip": "07946", "place_name": "Millington, NJ 07946, USA"}, {"lat": 40.8354565, "lng": -74.48773059999999, "zip": "07950", "place_name": "Morris Plains, NJ 07950, USA"}, {"lat": 40.7793504, "lng": -74.511172, "zip": "07960", "place_name": "Morristown, NJ 07960, USA"}, {"lat": 40.7966042, "lng": -74.4815759, "zip": "07961", "place_name": "Convent Station, NJ 07961, USA"}, {"lat": 40.7208993, "lng": -74.4818698, "zip": "07976", "place_name": "New Vernon, NJ 07976, USA"}, {"lat": 40.68288920000001, "lng": -74.49359129999999, "zip": "07980", "place_name": "Stirling, NJ 07980, USA"}, {"lat": 40.8257746, "lng": -74.41738769999999, "zip": "07981", "place_name": "Whippany, NJ 07981, USA"}, {"lat": 40.9886496, "lng": -74.3822058, "zip": "07405", "place_name": "Butler, NJ 07405, USA"}, {"lat": 40.6772404, "lng": -74.2912872, "zip": "07033", "place_name": "Kenilworth, NJ 07033, USA"}, {"lat": 40.6216016, "lng": -74.22967129999999, "zip": "07036", "place_name": "Linden, NJ 07036, USA"}, {"lat": 40.61374379999999, "lng": -74.4232507, "zip": "07060", "place_name": "Plainfield, NJ 07060, USA"}, {"lat": 40.6202431, "lng": -74.4200206, "zip": "07061", "place_name": "Plainfield, NJ 07061, USA"}, {"lat": 40.6303421, "lng": -74.3997976, "zip": "07062", "place_name": "Plainfield, NJ 07062, USA"}, {"lat": 40.607053, "lng": -74.4467007, "zip": "07063", "place_name": "Plainfield, NJ 07063, USA"}, {"lat": 40.6041777, "lng": -74.2824862, "zip": "07065", "place_name": "Rahway, NJ 07065, USA"}, {"lat": 40.6189813, "lng": -74.3176876, "zip": "07066", "place_name": "Clark, NJ 07066, USA"}, {"lat": 40.6254814, "lng": -74.3646122, "zip": "07076", "place_name": "Scotch Plains, NJ 07076, USA"}, {"lat": 40.699863, "lng": -74.32941989999999, "zip": "07081", "place_name": "Springfield Township, NJ 07081, USA"}, {"lat": 40.6843079, "lng": -74.2531465, "zip": "07083", "place_name": "Union, NJ 07083, USA"}, {"lat": 40.7199369, "lng": -74.28688679999999, "zip": "07088", "place_name": "Vauxhall, NJ 07088, USA"}, {"lat": 40.6519674, "lng": -74.3411515, "zip": "07090", "place_name": "Westfield, NJ 07090, USA"}, {"lat": 40.684934, "lng": -74.3646122, "zip": "07092", "place_name": "Mountainside, NJ 07092, USA"}, {"lat": 40.7146376, "lng": -74.3646122, "zip": "07901", "place_name": "Summit, NJ 07901, USA"}, {"lat": 40.6748343, "lng": -74.4349761, "zip": "07922", "place_name": "Berkeley Heights, NJ 07922, USA"}, {"lat": 40.6669059, "lng": -74.20407449999999, "zip": "07201", "place_name": "Elizabeth, NJ 07201, USA"}, {"lat": 40.6517521, "lng": -74.21499779999999, "zip": "07202", "place_name": "Elizabeth, NJ 07202, USA"}, {"lat": 40.6520982, "lng": -74.2707509, "zip": "07203", "place_name": "Roselle, NJ 07203, USA"}, {"lat": 40.6996994, "lng": -74.3997976, "zip": "07974", "place_name": "New Providence, NJ 07974, USA"}, {"lat": 40.6640714, "lng": -74.2678169, "zip": "07204", "place_name": "Roselle Park, NJ 07204, USA"}, {"lat": 40.69506200000001, "lng": -74.22380199999999, "zip": "07205", "place_name": "Hillside, NJ 07205, USA"}, {"lat": 40.6517773, "lng": -74.1797766, "zip": "07206", "place_name": "Elizabethport, NJ 07206, USA"}, {"lat": 40.6697924, "lng": -74.2158541, "zip": "07207", "place_name": "Elizabeth, NJ 07207, USA"}, {"lat": 40.6723782, "lng": -74.2208673, "zip": "07208", "place_name": "Elizabeth, NJ 07208, USA"}, {"lat": 40.6569929, "lng": -74.30595459999999, "zip": "07016", "place_name": "Cranford, NJ 07016, USA"}, {"lat": 40.6407094, "lng": -74.3851379, "zip": "07023", "place_name": "Fanwood, NJ 07023, USA"}, {"lat": 40.6524118, "lng": -74.3264869, "zip": "07027", "place_name": "Garwood, NJ 07027, USA"}, {"lat": 40.5190417, "lng": -74.68651559999999, "zip": "08821", "place_name": "Flagtown, NJ 08821, USA"}, {"lat": 40.444271, "lng": -74.5639037, "zip": "08823", "place_name": "Franklin Park, NJ 08823, USA"}, {"lat": 40.5448011, "lng": -74.59026349999999, "zip": "08835", "place_name": "Manville, NJ 08835, USA"}, {"lat": 40.5917412, "lng": -74.5521869, "zip": "08836", "place_name": "Martinsville, NJ 08836, USA"}, {"lat": 40.6208604, "lng": -74.511172, "zip": "07059", "place_name": "Warren, NJ 07059, USA"}, {"lat": 40.5106594, "lng": -74.6472522, "zip": "08844", "place_name": "Hillsborough Township, NJ 08844, USA"}, {"lat": 40.4470526, "lng": -74.6576091, "zip": "08502", "place_name": "Belle Mead, NJ 08502, USA"}, {"lat": 40.4073199, "lng": -74.7020361, "zip": "08504", "place_name": "Blawenburg, NJ 08504, USA"}, {"lat": 40.533515, "lng": -74.74541119999999, "zip": "08853", "place_name": "Neshanic Station, NJ 08853, USA"}, {"lat": 40.6451039, "lng": -74.4349761, "zip": "07069", "place_name": "Watchung, NJ 07069, USA"}, {"lat": 40.3852839, "lng": -74.6151551, "zip": "08528", "place_name": "Kingston, NJ 08528, USA"}, {"lat": 40.5747108, "lng": -74.6458987, "zip": "08869", "place_name": "Raritan, NJ 08869, USA"}, {"lat": 40.4933734, "lng": -74.5228916, "zip": "08873", "place_name": "Somerset, NJ 08873, USA"}, {"lat": 40.58681139999999, "lng": -74.69858909999999, "zip": "08876", "place_name": "Somerville, NJ 08876, USA"}, {"lat": 40.5558726, "lng": -74.52582129999999, "zip": "08880", "place_name": "South Bound Brook, NJ 08880, USA"}, {"lat": 40.39777400000001, "lng": -74.642971, "zip": "08553", "place_name": "Rocky Hill, NJ 08553, USA"}, {"lat": 40.4109485, "lng": -74.72200169999999, "zip": "08558", "place_name": "Skillman, NJ 08558, USA"}, {"lat": 40.6431955, "lng": -74.6751731, "zip": "07921", "place_name": "Bedminster Township, NJ 07921, USA"}, {"lat": 40.7295773, "lng": -74.5814773, "zip": "07924", "place_name": "Bernardsville, NJ 07924, USA"}, {"lat": 40.7245838, "lng": -74.6722459, "zip": "07934", "place_name": "Gladstone, NJ 07934, USA"}, {"lat": 40.6651969, "lng": -74.5785964, "zip": "07938", "place_name": "Liberty Corner, NJ 07938, USA"}, {"lat": 40.7164453, "lng": -74.6601706, "zip": "07977", "place_name": "Peapack, NJ 07977, USA"}, {"lat": 40.5702869, "lng": -74.54046939999999, "zip": "08805", "place_name": "Bound Brook, NJ 08805, USA"}, {"lat": 40.5971482, "lng": -74.6283316, "zip": "08807", "place_name": "Bridgewater, NJ 08807, USA"}, {"lat": 40.3749332, "lng": -74.49359129999999, "zip": "08810", "place_name": "Dayton, NJ 08810, USA"}, {"lat": 40.6019636, "lng": -74.4818698, "zip": "08812", "place_name": "Dunellen, NJ 08812, USA"}, {"lat": 40.4333407, "lng": -74.41152459999999, "zip": "08816", "place_name": "East Brunswick, NJ 08816, USA"}, {"lat": 40.5054763, "lng": -74.3939339, "zip": "08817", "place_name": "Edison, NJ 08817, USA"}, {"lat": 40.52642410000001, "lng": -74.38698219999999, "zip": "08818", "place_name": "Edison, NJ 08818, USA"}, {"lat": 40.57575629999999, "lng": -74.3548452, "zip": "08820", "place_name": "Edison, NJ 08820, USA"}, {"lat": 40.4227689, "lng": -74.5521869, "zip": "08824", "place_name": "Kendall Park, NJ 08824, USA"}, {"lat": 40.3823028, "lng": -74.4203192, "zip": "08828", "place_name": "Helmetta, NJ 08828, USA"}, {"lat": 40.5693929, "lng": -74.3176876, "zip": "08830", "place_name": "Iselin, NJ 08830, USA"}, {"lat": 40.3362872, "lng": -74.43298519999999, "zip": "08831", "place_name": "Monroe Township, NJ 08831, USA"}, {"lat": 40.5152454, "lng": -74.3030212, "zip": "08832", "place_name": "Keasbey, NJ 08832, USA"}, {"lat": 40.5230137, "lng": -74.3411515, "zip": "08837", "place_name": "Edison, NJ 08837, USA"}, {"lat": 40.5461171, "lng": -74.3646122, "zip": "08840", "place_name": "Metuchen, NJ 08840, USA"}, {"lat": 40.575405, "lng": -74.505312, "zip": "08846", "place_name": "Middlesex, NJ 08846, USA"}, {"lat": 40.4494047, "lng": -74.43790729999999, "zip": "08850", "place_name": "Milltown, NJ 08850, USA"}, {"lat": 40.3913012, "lng": -74.54046939999999, "zip": "08852", "place_name": "Monmouth Junction, NJ 08852, USA"}, {"lat": 40.554887, "lng": -74.4642861, "zip": "08854", "place_name": "Piscataway Township, NJ 08854, USA"}, {"lat": 40.3879889, "lng": -74.3352858, "zip": "08857", "place_name": "Old Bridge, NJ 08857, USA"}, {"lat": 40.4601511, "lng": -74.3176876, "zip": "08859", "place_name": "Parlin, NJ 08859, USA"}, {"lat": 40.5090949, "lng": -74.27661859999999, "zip": "08861", "place_name": "Perth Amboy, NJ 08861, USA"}, {"lat": 40.5309535, "lng": -74.3088879, "zip": "08863", "place_name": "Fords, NJ 08863, USA"}, {"lat": 40.4603327, "lng": -74.36089559999999, "zip": "08871", "place_name": "Sayreville, NJ 08871, USA"}, {"lat": 40.465024, "lng": -74.3528822, "zip": "08872", "place_name": "Sayreville, NJ 08872, USA"}, {"lat": 40.4751425, "lng": -74.2824862, "zip": "08879", "place_name": "South Amboy, NJ 08879, USA"}, {"lat": 40.4462997, "lng": -74.3792737, "zip": "08882", "place_name": "South River, NJ 08882, USA"}, {"lat": 40.398174, "lng": -74.39100189999999, "zip": "08884", "place_name": "Spotswood, NJ 08884, USA"}, {"lat": 40.4861552, "lng": -74.45185, "zip": "08901", "place_name": "New Brunswick, NJ 08901, USA"}, {"lat": 40.4430064, "lng": -74.4818698, "zip": "08902", "place_name": "North Brunswick Township, NJ 08902, USA"}, {"lat": 40.502468, "lng": -74.42618209999999, "zip": "08904", "place_name": "Highland Park, NJ 08904, USA"}, {"lat": 40.48999999999999, "lng": -74.45, "zip": "08906", "place_name": "New Brunswick, NJ 08906, USA"}, {"lat": 40.4358981, "lng": -74.2326058, "zip": "07721", "place_name": "Cliffwood, NJ 07721, USA"}, {"lat": 40.5827122, "lng": -74.2707509, "zip": "07001", "place_name": "Avenel, NJ 07001, USA"}, {"lat": 40.5761692, "lng": -74.22380199999999, "zip": "07008", "place_name": "Carteret, NJ 07008, USA"}, {"lat": 40.4359539, "lng": -74.197388, "zip": "07735", "place_name": "Keyport, NJ 07735, USA"}, {"lat": 40.4031697, "lng": -74.22967129999999, "zip": "07747", "place_name": "Matawan, NJ 07747, USA"}, {"lat": 40.57159559999999, "lng": -74.2443436, "zip": "07064", "place_name": "Port Reading, NJ 07064, USA"}, {"lat": 40.3225327, "lng": -74.511172, "zip": "08512", "place_name": "Cranbury, NJ 08512, USA"}, {"lat": 40.5892333, "lng": -74.3176876, "zip": "07067", "place_name": "Colonia, NJ 07067, USA"}, {"lat": 40.5513168, "lng": -74.2590148, "zip": "07077", "place_name": "Sewaren, NJ 07077, USA"}, {"lat": 40.3379035, "lng": -74.5873348, "zip": "08536", "place_name": "Plainsboro Township, NJ 08536, USA"}, {"lat": 40.3815302, "lng": -74.651754, "zip": "08540", "place_name": "Princeton, NJ 08540, USA"}, {"lat": 40.56829, "lng": -74.41738769999999, "zip": "07080", "place_name": "South Plainfield, NJ 07080, USA"}, {"lat": 40.5545823, "lng": -74.2824862, "zip": "07095", "place_name": "Woodbridge, NJ 07095, USA"}, {"lat": 40.3635408, "lng": -74.0887576, "zip": "07701", "place_name": "Red Bank, NJ 07701, USA"}, {"lat": 40.32457309999999, "lng": -74.0593872, "zip": "07702", "place_name": "Shrewsbury, NJ 07702, USA"}, {"lat": 40.3135843, "lng": -74.04323149999999, "zip": "07703", "place_name": "Fort Monmouth, NJ 07703, USA"}, {"lat": 40.3610648, "lng": -74.0358876, "zip": "07704", "place_name": "Fair Haven, NJ 07704, USA"}, {"lat": 40.2176499, "lng": -74.2561163, "zip": "07710", "place_name": "Adelphia, NJ 07710, USA"}, {"lat": 40.2345124, "lng": -74.0035709, "zip": "07711", "place_name": "Allenhurst, NJ 07711, USA"}, {"lat": 40.24488040000001, "lng": -74.0593872, "zip": "07712", "place_name": "Asbury Park, NJ 07712, USA"}, {"lat": 40.18, "lng": -74.02, "zip": "07715", "place_name": "Belmar, NJ 07715, USA"}, {"lat": 40.4107844, "lng": -74.0358876, "zip": "07716", "place_name": "Atlantic Highlands, NJ 07716, USA"}, {"lat": 40.191299, "lng": -74.0153231, "zip": "07717", "place_name": "Avon-By-The-Sea, NJ 07717, USA"}, {"lat": 40.4174102, "lng": -74.0828839, "zip": "07718", "place_name": "Belford, NJ 07718, USA"}, {"lat": 40.1642213, "lng": -74.0887576, "zip": "07719", "place_name": "Belmar, NJ 07719, USA"}, {"lat": 40.2012739, "lng": -74.0153231, "zip": "07720", "place_name": "Bradley Beach, NJ 07720, USA"}, {"lat": 40.28873859999999, "lng": -74.1944529, "zip": "07722", "place_name": "Colts Neck, NJ 07722, USA"}, {"lat": 40.246556, "lng": -74.00063279999999, "zip": "07723", "place_name": "Deal, NJ 07723, USA"}, {"lat": 40.3038147, "lng": -74.0887576, "zip": "07724", "place_name": "Eatontown, NJ 07724, USA"}, {"lat": 40.2800274, "lng": -74.347017, "zip": "07726", "place_name": "Englishtown, NJ 07726, USA"}, {"lat": 40.1940632, "lng": -74.1592278, "zip": "07727", "place_name": "Farmingdale, NJ 07727, USA"}, {"lat": 40.2303787, "lng": -74.27661859999999, "zip": "07728", "place_name": "Freehold, NJ 07728, USA"}, {"lat": 40.430596, "lng": -74.1768412, "zip": "07730", "place_name": "Hazlet, NJ 07730, USA"}, {"lat": 40.1407113, "lng": -74.2061931, "zip": "07731", "place_name": "Howell, NJ 07731, USA"}, {"lat": 40.4140752, "lng": -73.9888797, "zip": "07732", "place_name": "Highlands, NJ 07732, USA"}, {"lat": 40.3767169, "lng": -74.1827119, "zip": "07733", "place_name": "Holmdel, NJ 07733, USA"}, {"lat": 40.4426433, "lng": -74.1386767, "zip": "07734", "place_name": "Keansburg, NJ 07734, USA"}, {"lat": 40.4112009, "lng": -74.05644989999999, "zip": "07737", "place_name": "Leonardo, NJ 07737, USA"}, {"lat": 40.3344821, "lng": -74.12986839999999, "zip": "07738", "place_name": "Lincroft, NJ 07738, USA"}, {"lat": 40.3312131, "lng": -74.0358876, "zip": "07739", "place_name": "Little Silver, NJ 07739, USA"}, {"lat": 40.29470269999999, "lng": -73.9888797, "zip": "07740", "place_name": "Long Branch, NJ 07740, USA"}, {"lat": 40.3268076, "lng": -74.2531465, "zip": "07746", "place_name": "Marlboro Township, NJ 07746, USA"}, {"lat": 40.3925365, "lng": -74.1181234, "zip": "07748", "place_name": "Middletown, NJ 07748, USA"}, {"lat": 40.3345201, "lng": -73.9888797, "zip": "07750", "place_name": "Monmouth Beach, NJ 07750, USA"}, {"lat": 40.36663679999999, "lng": -74.2531465, "zip": "07751", "place_name": "Morganville, NJ 07751, USA"}, {"lat": 40.407295, "lng": -74.0365381, "zip": "07752", "place_name": "Navesink, NJ 07752, USA"}, {"lat": 40.2240869, "lng": -74.0887576, "zip": "07753", "place_name": "Neptune City, NJ 07753, USA"}, {"lat": 40.2598423, "lng": -74.0241367, "zip": "07755", "place_name": "Oakhurst, NJ 07755, USA"}, {"lat": 40.21145610000001, "lng": -74.0079781, "zip": "07756", "place_name": "Ocean Grove, NJ 07756, USA"}, {"lat": 40.3179397, "lng": -74.0123851, "zip": "07757", "place_name": "Oceanport, NJ 07757, USA"}, {"lat": 40.4319003, "lng": -74.0975678, "zip": "07758", "place_name": "Port Monmouth, NJ 07758, USA"}, {"lat": 40.3701706, "lng": -73.99475629999999, "zip": "07760", "place_name": "Rumson, NJ 07760, USA"}, {"lat": 40.1601131, "lng": -74.0241367, "zip": "07762", "place_name": "Spring Lake, NJ 07762, USA"}, {"lat": 40.2897287, "lng": -74.0241367, "zip": "07764", "place_name": "West Long Branch, NJ 07764, USA"}, {"lat": 40.3501663, "lng": -74.2479659, "zip": "07765", "place_name": "Wickatunk, NJ 07765, USA"}, {"lat": 40.1692019, "lng": -74.5580454, "zip": "08501", "place_name": "Allentown, NJ 08501, USA"}, {"lat": 40.18992739999999, "lng": -74.41738769999999, "zip": "08510", "place_name": "Millstone, NJ 08510, USA"}, {"lat": 40.1396104, "lng": -74.48773059999999, "zip": "08514", "place_name": "Cream Ridge, NJ 08514, USA"}, {"lat": 40.17, "lng": -74.50999999999999, "zip": "08526", "place_name": "Imlaystown, NJ 08526, USA"}, {"lat": 40.249829, "lng": -74.41738769999999, "zip": "08535", "place_name": "Millstone, NJ 08535, USA"}, {"lat": 40.2200405, "lng": -74.4730782, "zip": "08555", "place_name": "Roosevelt, NJ 08555, USA"}, {"lat": 40.13882479999999, "lng": -74.103441, "zip": "08720", "place_name": "Allenwood, NJ 08720, USA"}, {"lat": 40.1030781, "lng": -74.0623244, "zip": "08730", "place_name": "Brielle, NJ 08730, USA"}, {"lat": 40.1267952, "lng": -74.0711359, "zip": "08736", "place_name": "Manasquan, NJ 08736, USA"}, {"lat": 40.0851765, "lng": -74.0593872, "zip": "08742", "place_name": "Point Pleasant Beach, NJ 08742, USA"}, {"lat": 40.1318193, "lng": -74.0358876, "zip": "08750", "place_name": "Sea Girt, NJ 08750, USA"}, {"lat": 41.5773, "lng": -73.5005111, "zip": "06784", "place_name": "Sherman, CT 06784, USA"}, {"lat": 41.3686146, "lng": -73.4062342, "zip": "06801", "place_name": "Bethel, CT 06801, USA"}, {"lat": 41.4660901, "lng": -73.4062342, "zip": "06804", "place_name": "Brookfield, CT 06804, USA"}, {"lat": 41.0676332, "lng": -73.5888575, "zip": "06807", "place_name": "Cos Cob, CT 06807, USA"}, {"lat": 41.3755722, "lng": -73.45337789999999, "zip": "06810", "place_name": "Danbury, CT 06810, USA"}, {"lat": 41.418055, "lng": -73.4769458, "zip": "06811", "place_name": "Danbury, CT 06811, USA"}, {"lat": 41.4799889, "lng": -73.5005111, "zip": "06812", "place_name": "New Fairfield, CT 06812, USA"}, {"lat": 41.3904046, "lng": -73.5086111, "zip": "06817", "place_name": "Danbury, CT 06817, USA"}, {"lat": 41.0855853, "lng": -73.4769458, "zip": "06820", "place_name": "Darien, CT 06820, USA"}, {"lat": 41.1948222, "lng": -73.28833, "zip": "06824", "place_name": "Fairfield, CT 06824, USA"}, {"lat": 41.1935626, "lng": -73.2470486, "zip": "06825", "place_name": "Fairfield, CT 06825, USA"}, {"lat": 41.2134951, "lng": -73.24800069999999, "zip": "06828", "place_name": "Fairfield, CT 06828, USA"}, {"lat": 41.0670166, "lng": -73.6182979, "zip": "06830", "place_name": "Greenwich, CT 06830, USA"}, {"lat": 41.0853864, "lng": -73.6771662, "zip": "06831", "place_name": "Greenwich, CT 06831, USA"}, {"lat": 41.1674509, "lng": -73.5005111, "zip": "06840", "place_name": "New Canaan, CT 06840, USA"}, {"lat": 41.11730120000001, "lng": -73.4592701, "zip": "06850", "place_name": "Norwalk, CT 06850, USA"}, {"lat": 41.1339818, "lng": -73.4062342, "zip": "06851", "place_name": "Norwalk, CT 06851, USA"}, {"lat": 41.0676906, "lng": -73.4386466, "zip": "06853", "place_name": "Norwalk, CT 06853, USA"}, {"lat": 41.0924881, "lng": -73.42391429999999, "zip": "06854", "place_name": "Norwalk, CT 06854, USA"}, {"lat": 41.098813, "lng": -73.4003405, "zip": "06855", "place_name": "Norwalk, CT 06855, USA"}, {"lat": 41.0980447, "lng": -73.4245725, "zip": "06856", "place_name": "Norwalk, CT 06856, USA"}, {"lat": 41.12, "lng": -73.41, "zip": "06860", "place_name": "Norwalk, CT 06860, USA"}, {"lat": 41.0249257, "lng": -73.5653021, "zip": "06870", "place_name": "Old Greenwich, CT 06870, USA"}, {"lat": 41.2928979, "lng": -73.48872879999999, "zip": "06877", "place_name": "Ridgefield, CT 06877, USA"}, {"lat": 41.0303895, "lng": -73.5859132, "zip": "06878", "place_name": "Riverside, CT 06878, USA"}, {"lat": 41.28, "lng": -73.5, "zip": "06879", "place_name": "Ridgefield, CT 06879, USA"}, {"lat": 41.1270095, "lng": -73.3590802, "zip": "06880", "place_name": "Westport, CT 06880, USA"}, {"lat": 41.228379, "lng": -73.38265849999999, "zip": "06883", "place_name": "Weston, CT 06883, USA"}, {"lat": 41.1288718, "lng": -73.3778693, "zip": "06889", "place_name": "Westport, CT 06889, USA"}, {"lat": 41.1401164, "lng": -73.28243309999999, "zip": "06890", "place_name": "Southport, CT 06890, USA"}, {"lat": 41.30656159999999, "lng": -73.38265849999999, "zip": "06896", "place_name": "Redding, CT 06896, USA"}, {"lat": 41.2077334, "lng": -73.4415929, "zip": "06897", "place_name": "Wilton, CT 06897, USA"}, {"lat": 41.0529585, "lng": -73.53879909999999, "zip": "06901", "place_name": "Stamford, CT 06901, USA"}, {"lat": 41.0411194, "lng": -73.541744, "zip": "06902", "place_name": "Stamford, CT 06902, USA"}, {"lat": 41.1386109, "lng": -73.5711912, "zip": "06903", "place_name": "Stamford, CT 06903, USA"}, {"lat": 41.05, "lng": -73.53999999999999, "zip": "06904", "place_name": "Stamford, CT 06904, USA"}, {"lat": 41.0901834, "lng": -73.541744, "zip": "06905", "place_name": "Stamford, CT 06905, USA"}, {"lat": 41.0699973, "lng": -73.5211286, "zip": "06906", "place_name": "Stamford, CT 06906, USA"}, {"lat": 41.0994238, "lng": -73.5211286, "zip": "06907", "place_name": "Stamford, CT 06907, USA"}, {"lat": 41.1472781, "lng": -73.5906976, "zip": "06927", "place_name": "Stamford, CT 06927, USA"}, {"lat": 41.34056169999999, "lng": -73.2175571, "zip": "06468", "place_name": "Monroe, CT 06468, USA"}, {"lat": 41.3821371, "lng": -73.3001233, "zip": "06470", "place_name": "Newtown, CT 06470, USA"}, {"lat": 41.4025871, "lng": -73.2411506, "zip": "06482", "place_name": "Sandy Hook, CT 06482, USA"}, {"lat": 41.3104378, "lng": -73.1467619, "zip": "06484", "place_name": "Shelton, CT 06484, USA"}, {"lat": 41.1800621, "lng": -73.1883898, "zip": "06601", "place_name": "Bridgeport, CT 06601, USA"}, {"lat": 41.1800362, "lng": -73.1882462, "zip": "06602", "place_name": "Bridgeport, CT 06602, USA"}, {"lat": 41.1865502, "lng": -73.195196, "zip": "06604", "place_name": "Bridgeport, CT 06604, USA"}, {"lat": 41.1687117, "lng": -73.21165839999999, "zip": "06605", "place_name": "Bridgeport, CT 06605, USA"}, {"lat": 41.2078356, "lng": -73.21165839999999, "zip": "06606", "place_name": "Bridgeport, CT 06606, USA"}, {"lat": 41.1743166, "lng": -73.1674128, "zip": "06607", "place_name": "Bridgeport, CT 06607, USA"}, {"lat": 41.1858661, "lng": -73.17921249999999, "zip": "06608", "place_name": "Bridgeport, CT 06608, USA"}, {"lat": 41.2007682, "lng": -73.1644628, "zip": "06610", "place_name": "Bridgeport, CT 06610, USA"}, {"lat": 41.2509354, "lng": -73.2057595, "zip": "06611", "place_name": "Trumbull, CT 06611, USA"}, {"lat": 41.2650119, "lng": -73.3001233, "zip": "06612", "place_name": "Easton, CT 06612, USA"}, {"lat": 41.22877500000001, "lng": -73.1231585, "zip": "06614", "place_name": "Stratford, CT 06614, USA"}, {"lat": 41.1661142, "lng": -73.12905959999999, "zip": "06615", "place_name": "Stratford, CT 06615, USA"}]